,Unnamed: 0,facility,latitude,longitude,altitude,accuracy,kmfl_new,kmfl,nn?,keph_level,county,constituency,sub_county,ward,keph_level_new,Ownership,QQ2,Q2,QQ3,20km_to_level4,10km_to_level4,15km_to_level4,5km_to_level4,7_5km_to_level4,12_5km_to_level4,17_5km_to_level4
0,0,Kipyosit Dispensary,-0.765322,35.483308,2210.4,5.2,n_18526,n,18526,Level 2,Bomet,Bomet East,Bomet East,Kembu,Level 2,Government/Public entity,rural,Rural,Dispensary,0,0,0,0,0,0,0
1,1,Edris Premier Hospital Limited,-1.273968,36.850828,1635.0,17.844,n_25688,n,25688,Level 3,Nairobi,Kamukunji,Kamukunji,Airbase,Level 4,Private,rural,Rural,Hospital,0,0,0,0,0,0,0
2,2,Kenyatta National Hospital,-1.30055,36.806402,1714.599976,6.4,n_13023,n,13023,Level 6,Nairobi,Kibra,Kibra,Woodley/Kenyatta Golf Course,Level 6,Government/Public entity,urban,Urban,Hospital,0,0,0,0,0,0,0
3,3,Moi Teaching Refferal Hospital,0.511139,35.281996,2092.099854,14.24,n_15204,n,15204,Level 6,Uasin Gishu,Ainabkoi,Ainabkoi,Kapsoya,Level 6,Government/Public entity,urban,Urban,Hospital,0,0,0,0,0,0,0
4,4,Nairobi Hospital,-1.297099,36.804146,1727.900024,20.0,n_13110,n,13110,Level 5,Nairobi,Dagoretti North,Dagoretti North,Kilimani,Level 5,Private,urban,Urban,Hospital,0,0,0,0,0,0,0
5,5,Kenyatta University Teaching Refferal and Research Hospital,-1.177522,36.916375,1535.5,15.008,n_24979,n,24979,Level 6,Nairobi,Roysambu,Roysambu,Kahawa,Level 6,Government/Public entity,urban,Urban,Hospital,0,0,0,0,0,0,0
6,6,Nakuru Provincial General Hospital,-0.278031,36.072492,1853.599976,19.208,n_15288,n,15288,Level 5,Nakuru,Nakuru Town East,Nakuru West,London,Level 5,Government/Public entity,urban,Urban,Hospital,0,0,0,0,0,0,0
7,7,Coast General Teaching and Referral Hospital,-4.048828,39.67369,-8.3,11.824,n_11289,n,11289,Level 5,Mombasa,Mvita,Mvita,Tononoka,Level 5,Government/Public entity,urban,Urban,Hospital,0,0,0,0,0,0,0
8,8,MP Shah Hospital (Westlands),-1.264262,36.811479,1685.102051,4.064,n_13098,n,13098,Level 4,Nairobi,Westlands,Westlands,Parklands/Highridge,Level 4,Private,urban,Urban,Hospital,0,0,0,0,0,0,0
9,9,Ndaragwa Health Centre,-0.056881,36.531606,2278.0,6.0,n_10829,n,10829,Level 3,Nyandarua,Ndaragwa,Ndaragwa,Central,Level 3,Government/Public entity,rural,Rural,Health Center,0,0,0,0,0,0,0
10,10,Nanyuki  Teaching and Referral  Hospital,0.020626,37.072683,1915.800049,5.266,n_15305,n,15305,Level 4,Laikipia,Laikipia East,Laikipia East,Nanyuki,Level 4,Government/Public entity,urban,Urban,Hospital,0,0,0,0,0,0,0
11,11,Embu Level 5 Hospital,-0.524051,37.453312,1376.3,3.9,n_12004,n,12004,Level 5,Embu,Manyatta,Manyatta,Kirimari,Level 5,Government/Public entity,urban,Urban,Hospital,0,0,0,0,0,0,0
12,12,Mukurweini District Hospital,-0.562493,37.044685,1777.9,8.5,n_10763,n,10763,Level 4,Nyeri,Mukurweini,Mukurweini,Mukurwe-ini Central,Level 4,Government/Public entity,urban,Urban,Hospital,0,0,0,0,0,0,0
13,13,Nyeri Provincial General Hospital (PGH),-0.426152,36.963335,1756.5,8.0,n_10903,n,10903,Level 5,Nyeri,Nyeri Town,Nyeri Central,Rware,Level 5,Government/Public entity,urban,Urban,Hospital,0,0,0,0,0,0,0
14,14,Aga Khan Hospital,-1.2623,36.82466,1659.5,23.319,n_12867,n,12867,Level 5,Nairobi,Westlands,Westlands,Parklands/Highridge,Level 5,Private,urban,Urban,Hospital,0,0,0,0,0,0,0
15,15,Mbagathi District Hospital,-1.30908,36.80396,1707.099976,14.511,n_13080,n,13080,Level 4,Nairobi,Kibra,Kibra,Woodley/Kenyatta Golf Course,Level 4,Government/Public entity,urban,Urban,Hospital,0,0,0,0,0,0,0
16,16,Maragua District Hospital,-0.789559,37.127503,1343.900024,4.04,n_10686,n,10686,Level 4,Murang'a,Maragwa,muranga south,Nginda,Level 4,Government/Public entity,rural,Rural,Hospital,0,0,0,0,0,0,0
17,17,Thika Level 5 Hospital,-1.041647,37.078643,1488.700073,5.76,n_11094,n,11094,Level 5,Kiambu,Thika Town,Thika Town,Township,Level 5,Government/Public entity,urban,Urban,Hospital,0,0,0,0,0,0,0
18,18,KNH Othaya Annex,-0.542304,36.941264,1790.5,7.56,n_25045153,n,25045153,Level 6,Nyeri,Nyeri South,Nyeri South,Iria-ini,Level 6,Government/Public entity,urban,Urban,Hospital,0,0,0,0,0,0,0
19,19,Nyahururu District Hospital,0.038026,36.361778,2361.299805,3.12,n_10890,n,10890,Level 4,Laikipia,Laikipia West,Laikipia West,Igwamiti,Level 4,Government/Public entity,urban,Urban,Hospital,0,0,0,0,0,0,0
20,20,Aic Cure International Hospitals Westlands (Nairobi city),-1.262048,36.806893,1708.099976,19.165001,n_1811,n,1811,Level 2,Nairobi,,,Parklands Highridge,Level 2,Faith Based Organization,urban,Urban,Medical Clinic,0,0,0,0,0,0,0
21,21,Kiwa Laboratory,-0.790778,37.130407,1343.300049,20.0,n_20728,n,20728,Level 2,Murang'a,Maragwa,muranga south,Ichagaki,Level 2,Private,urban,Urban,other,0,0,0,0,0,0,0
22,22,Mbeyu Medical Centre Limited (Kilifi),-3.927545,39.569758,171.1,6.94,n_28608410,n,28608410,Level 2,Kilifi,,,Rabai,Level 2,Private,rural,Rural,Medical Center,0,0,0,0,0,0,0
23,23,Eastern Deanery Aids Relief Program Huruma Clinic,-1.257577,36.87393,1605.599976,11.6,n_12973,n,12973,Level 2,Nairobi,Mathare,Mathare,Huruma,Level 2,Faith Based Organization,urban,Urban,Health Center,0,0,0,0,0,0,0
24,24,Zuri Medical Clinic,-0.958892,37.082837,1537.8,2.933,n_24426,n,24426,Level 2,Murang'a,Kandara,Kandara,Muruka,Level 2,Private,rural,Rural,Medical Clinic,0,0,0,0,0,0,0
25,25,Eclasa Medical Clinic (Nairobi),-1.271834,36.893282,1597.0,18.385,n_5187,n,5187,Level 2,Nairobi,,,Mowlem,Level 2,Private,urban,Urban,Medical Clinic,0,0,0,0,0,0,0
26,26,Bamba Maternity Nursing Home,-3.541846,39.522423,265.1,4.16,n_11238,n,11238,Level 3,Kilifi,Ganze,Ganze,Bamba,Level 3,Private,rural,Rural,Nursing Home,0,0,0,0,0,0,0
27,27,Olchoro Oirowa Dispensary,-0.904235,35.462695,2004.1,4.18,n_21323,n,21323,Level 2,Narok,Narok West,Narok West,Ilmotiook,Level 2,Government/Public entity,rural,Rural,Dispensary,0,0,0,0,0,0,0
28,28,The Mater Hospital-Satelite Clinic(TRM),-1.219235,36.887494,1647.300049,18.25,n_22938,n,22938,Level 2,Nairobi,Roysambu,Roysambu,Roysambu,Level 2,Faith Based Organization,urban,Urban,Medical Center,0,0,0,0,0,0,0
29,29,Emmaus Clinic,-0.580946,35.693306,2574.1,9.88,n_14443,n,14443,Level 2,Nakuru,Kuresoi South,Kuresoi South,Amalo,Level 2,Private,rural,Rural,Medical Clinic,0,0,0,0,0,0,0
30,30,Moi County Referral Hospital (Voi),-3.389982,38.559091,569.900024,12.365,n_11641,n,11641,Level 4,Taita Taveta,Voi,Voi,Mbololo,Level 4,Government/Public entity,urban,Urban,Hospital,0,0,0,0,0,0,0
31,31,Kiambu County Referal Hospital,-1.172082,36.830978,1686.800049,17.152,n_10539,n,10539,Level 5,Kiambu,Kiambu,Kiambu Town,Township,Level 5,Government/Public entity,urban,Urban,Hospital,0,0,0,0,0,0,0
32,32,Murang'a County Refferal Hospital,-0.718766,37.160949,1316.300049,14.978,n_10777,n,10777,Level 4,Murang'a,Kiharu,Kiharu,Township,Level 4,Government/Public entity,urban,Urban,Hospital,0,0,0,0,0,0,0
33,33,Meru Teaching And Refferal Hospital,0.050841,37.654352,1573.900024,18.014999,n_12516,n,12516,Level 5,Meru,North Imenti,Imenti North,Municipality,Level 5,Government/Public entity,urban,Urban,Hospital,0,0,0,0,0,0,0
34,34,Garissa Level 5 Teaching and Referral Hospital,-0.448035,39.652589,132.099991,13.05,n_13346,n,13346,Level 5,Garissa,Garissa Township,Garissa,Waberi,Level 5,Government/Public entity,urban,Urban,Hospital,0,0,0,0,0,0,0
35,35,Mandera County Refferal Hospital,3.941332,41.861057,193.01416,7.815,n_13402,n,13402,Level 4,Mandera,Mandera East,Mandera East,Neboi,Level 4,Government/Public entity,urban,Urban,Hospital,0,0,0,0,0,0,0
36,36,Nyamira County Refferal Hospital,-0.55807,34.929095,1996.9,4.76,n_13912,n,13912,Level 4,Nyamira,West Mugirango,Nyamira,Township,Level 4,Government/Public entity,urban,Urban,Hospital,0,0,0,0,0,0,0
37,37,Chiromo Mental Health Hospital Limited - Nyali (Mombasa),-4.037075,39.713938,-10.5,22.669001,n_7687,n,7687,Level 3,Mombasa,,,Mkomani,Level 3,Private,urban,Urban,Hospital,0,0,0,0,0,0,0
38,38,Kandara Sub County Hospital,-0.900993,37.003202,1645.5,4.44,n_10459,n,10459,Level 4,Murang'a,Kandara,Kandara,Ithiru,Level 4,Government/Public entity,rural,Rural,Hospital,0,0,0,0,0,0,0
39,39,Kitale County Referral Hospital,1.016228,35.008746,1899.0,20.0,n_14947,n,14947,Level 4,Trans Nzoia,Kiminini,Kiminini,Hospital,Level 4,Government/Public entity,urban,Urban,Hospital,0,0,0,0,0,0,0
40,40,Kerugoya County Refferal Hospital,-0.504857,37.281313,1504.599976,20.0,n_10520,n,10520,Level 4,Kirinyaga,Kirinyaga Central,Kirinyaga Central,Kerugoya,Level 4,Government/Public entity,urban,Urban,Hospital,0,0,0,0,0,0,0
41,41,Kisii Teaching And Referral Hospital (Level 6),-0.670798,34.771161,1645.099976,10.408,n_137030,n,137030,Level 5,Kisii,Kitutu Chache South,Kitutu Chache South,Kitutu Central,Level 5,Government/Public entity,urban,Urban,Hospital,0,0,0,0,0,0,0
42,42,Iten County Referral Hospital,0.675889,35.506687,2332.899902,14.78,n_14586,n,14586,Level 4,Elgeyo-Marakwet,Keiyo North,Keiyo North,Kapchemutwa,Level 4,Government/Public entity,urban,Urban,Hospital,0,0,0,0,0,0,0
43,43,Lodwar County Referral Hospital,3.122161,35.601846,487.0,20.1,n_15049,n,15049,Level 4,Turkana,Turkana Central,Turkana Central,Lodwar Township,Level 4,Government/Public entity,urban,Urban,Hospital,0,0,0,0,0,0,0
44,44,Samburu County Referral Hospital,1.097932,36.696266,1932.1,6.533,n_15126,n,15126,Level 4,Samburu,Samburu Central,Samburu Central,Maralal,Level 4,Government/Public entity,urban,Urban,Hospital,0,0,0,0,0,0,0
45,45,Mama Lucy Kibaki Hospital (Embakasi),-1.274202,36.898791,1596.099976,8.38,n_17411,n,17411,Level 4,Nairobi,Embakasi Central,Embakasi Central,Komarock,Level 4,Government/Public entity,urban,Urban,Hospital,0,0,0,0,0,0,0
46,46,Nairobi Women Hospital(Naivasha Branch),-0.712378,36.43003,1885.099976,6.9,n_23999,n,23999,Level 4,Nakuru,Naivasha,Naivasha,Viwandani,Level 4,Private,urban,Urban,Hospital,0,0,0,0,0,0,0
47,47,Mikindani Hospital,-4.006303,39.628007,27.0,17.795,n_26142,n,26142,Level 4,Mombasa,Jomvu,Jomvu,Mikindani,Level 4,Private,urban,Urban,Hospital,0,0,0,0,0,0,0
48,48,Nyali Health Care Limited,-4.028107,39.71668,-12.6,4.966,n_11721,n,11721,Level 3,Mombasa,Nyali,Nyali,Ziwa La Ng'ombe,Level 3,Private,urban,Urban,Medical Clinic,0,0,0,0,0,0,0
49,49,National Spinal Injury Hospital,-1.288197,36.794032,1737.200073,3.48,n_13194,n,13194,Level 6,Nairobi,Dagoretti North,Dagoretti North,Kilimani,Level 6,Government/Public entity,urban,Urban,Hospital,0,0,0,0,0,0,0
50,50,Appex Hospital,0.635034,34.277354,1140.5,20.0,n_21136,n,21136,Level 4,Busia,Teso North,Teso North,Malaba Central,Level 3,Private,urban,Urban,Medical Center,0,0,0,0,0,0,0
51,51,Karuri Level 4 Hospital,-1.176328,36.752498,1912.099976,7.2,n_10507,n,10507,Level 4,Kiambu,Kiambaa,Kiambaa,Karuri,Level 4,Government/Public entity,rural,Rural,Hospital,0,0,0,0,0,0,0
52,52,Oasis medical centre,-3.929979,39.749269,-105.0,6.58,n_11912,n,11912,Level 2,Kilifi,Kilifi South,Kilifi South,Shimo La Tewa,Level 2,Private,urban,Urban,Medical Center,0,0,0,0,0,0,0
53,53,Runyenjes Sub County Hospital,-0.425194,37.57218,1492.3,3.65,n_12719,n,12719,Level 4,Embu,Runyenjes,Runyenjes,Central Ward,Level 4,Government/Public entity,urban,Urban,Hospital,0,0,0,0,0,0,0
54,54,Kinondo Kwetu Community Clinic,-4.375828,39.527196,-9.900001,20.0,n_16547,n,16547,Level 2,Kwale,Msambweni,Msambweni,Kinondo,Level 2,Private,rural,Rural,Medical Clinic,0,0,0,0,0,0,0
55,55,Gatundu Level 5 Hospital,-1.015016,36.906391,1693.599976,8.58,n_10233,n,10233,Level 4,Kiambu,Gatundu South,Gatundu South,Ngenda,Level 4,Government/Public entity,rural,Rural,Hospital,0,0,0,0,0,0,0
56,56,Kilifi County Hospital,-3.631699,39.857124,0.9,14.504,n_11474,n,11474,Level 4,Kilifi,Kilifi North,Kilifi North,Sokoni,Level 4,Government/Public entity,urban,Urban,Hospital,0,0,0,0,0,0,0
57,57,Tudor Sub County Hospital,-4.039948,39.663958,-2.9,20.0,n_11861,n,11861,Level 4,Mombasa,Mvita,Mvita,Tudor,Level 4,Government/Public entity,urban,Urban,Medical Center,0,0,0,0,0,0,0
58,58,Kapsabet County Referral Hospital,0.202345,35.103788,2169.4,6.66,n_14749,n,14749,Level 4,Nandi,Emgwen,Emgwen,Kapsabet,Level 4,Government/Public entity,urban,Urban,Hospital,0,0,0,0,0,0,0
59,59,Bungoma County Referral Hospital,0.572744,34.560073,1429.5,25.774,n_15828,n,15828,Level 4,Bungoma,Kanduyi,Kanduyi,Township,Level 4,Government/Public entity,urban,Urban,Hospital,0,0,0,0,0,0,0
60,60,Kakamega County General Hospital,0.275182,34.758833,1574.2,9.05,n_15915,n,15915,Level 5,Kakamega,Lurambi,Lurambi,Shirere,Level 5,Government/Public entity,urban,Urban,Hospital,0,0,0,0,0,0,0
61,61,Port Reitz Sub County Hospital,-4.039181,39.603113,28.299999,25.450001,n_36244,n,36244,Level 4,Mombasa,Changamwe,Changamwe,Airport,Level 4,Government/Public entity,urban,Urban,Hospital,0,0,0,0,0,0,0
62,62,Machakos Level 5 Hospital,-1.5237,37.267579,1609.099976,14.39,o12438,o,12438,Level 5,Machakos,Machakos Town,Machakos,Machakos Central,Level 5,Government/Public entity,urban,Urban,Hospital,0,0,0,0,0,0,0
63,63,Reale Hospital Clinic Kitale,1.016022,35.002621,1886.700073,16.518,n_28469,n,28469,Level 2,Trans Nzoia,Saboti,Saboti,Matisi,Level 4,Private,urban,Urban,Hospital,0,0,0,0,0,0,0
64,64,Kitengela West Hospital,-1.488598,36.9553,1557.400024,11.777,n_24733,n,24733,Level 3,Kajiado,Kajiado East,Kajiado East,Kitengela,Level 4,Private,urban,Urban,Hospital,0,0,0,0,0,0,0
65,65,Wananchi Maternity And Nursing Home (Kilifi),-3.624374,39.850733,-2.4,7.4,n_35032,n,35032,Level 4,Kilifi,,,Sokoni,Level 4,Private,urban,Urban,Hospital,0,0,0,0,0,0,0
66,66,Kangema Sub-County Hospital,-0.689923,36.971462,1804.7,3.1,n_10470,n,10470,Level 4,Murang'a,Kangema,Kangema,Muguru,Level 4,Government/Public entity,urban,Urban,Hospital,0,0,0,0,0,0,0
67,67,Madiany Sub County Hospital,-0.284112,34.322386,1210.4,3.125,n_13747,n,13747,Level 4,Siaya,Rarieda,Rarieda,South Uyoma,Level 4,Government/Public entity,rural,Rural,Hospital,0,0,0,0,0,0,0
68,68,Meridian Hospital,-3.197506,40.116317,18.6,5.38,n_11381,n,11381,Level 4,Kilifi,Magarini,Magarini,Sabaki,Level 4,Private,urban,Urban,Hospital,0,0,0,0,0,0,0
69,69,Keumbu Sub County Hospital,-0.73448,34.847903,1919.700073,10.77,n_13680,n,13680,Level 4,Kisii,Nyaribari Chache,Nyaribari Chache,Keumbu,Level 4,Government/Public entity,rural,Rural,Hospital,0,0,0,0,0,0,0
70,70,Grace Park Medical Centre (Meru),0.054112,37.644881,1670.3,3.127,n_40711,n,40711,Level 4,Meru,,,Imenti North,Level 4,Private,urban,Urban,Medical Center,0,0,0,0,0,0,0
71,71,Cherangany Sub County Hospital,0.977753,35.221088,1989.5,13.1,n_14379,n,14379,Level 3,Trans Nzoia,Cherangany,Cherangany,Motosiet,Level 3,Government/Public entity,rural,Rural,Health Center,0,0,0,0,0,0,0
72,72,Kapenguria County Referral Hospital,1.237378,35.121295,2092.599854,2.9,n_14701,n,14701,Level 4,West Pokot,Kapenguria,West Pokot,Kapenguria,Level 4,Government/Public entity,rural,Rural,Hospital,0,0,0,0,0,0,0
73,73,Busia County Referral Hospital,0.460455,34.104559,1211.800049,3.9,n_15834,n,15834,Level 4,Busia,Matayos,Matayos,Burumba,Level 4,Government/Public entity,urban,Urban,Hospital,0,0,0,0,0,0,0
74,74,Mikulinzi Nursing Home,-1.264395,36.90257,1588.0,7.925,n_21885,n,21885,Level 3,Nairobi,Embakasi West,Embakasi West,Mowlem,Level 3,Private,urban,Urban,Nursing Home,0,0,0,0,0,0,0
75,75,Canspi Hospital Ruaka,-1.209335,36.787569,1737.9,12.325,n_26257,n,26257,Level 2,Kiambu,Kiambaa,Kiambaa,Ndenderu,Level 2,Private,urban,Urban,Medical Center,0,0,0,0,0,0,0
76,76,Wajir County Referral Hospital,1.74745,40.062551,235.299988,7.504,n_13452,n,13452,Level 4,Wajir,Wajir East,Wajir East,Wagberi,Level 4,Government/Public entity,urban,Urban,Hospital,0,0,0,0,0,0,0
77,77,Naivasha District Hospital,-0.718527,36.439087,1922.800049,14.145,n_15280,n,15280,Level 4,Nakuru,Naivasha,Naivasha,Viwandani,Level 4,Government/Public entity,urban,Urban,Hospital,0,0,0,0,0,0,0
78,78,Webuye Hospital,0.613313,34.764622,1552.7,4.42,n_16161,n,16161,Level 4,Bungoma,Webute West,Webuye West,Matulo,Level 4,Government/Public entity,rural,Rural,Hospital,0,0,0,0,0,0,0
79,79,RFH Healthcare Ruaka,-1.207651,36.783074,1741.599976,13.22,n_28655,n,28655,Level 3,Kiambu,Kiambaa,Kiambaa,Ndenderu,Level 4,Private,urban,Urban,Hospital,0,0,0,0,0,0,0
80,80,Kimbimbi Sub-County Hospital,-0.620085,37.365755,1195.0,7.7,n_10609,n,10609,Level 4,Kirinyaga,Mwea,Kirinyaga South,Nyangati,Level 4,Government/Public entity,rural,Rural,Hospital,0,0,0,0,0,0,0
81,81,Muriranjas Sub-District Hospital,-0.746347,36.973127,1713.599976,5.242,n_10782,n,10782,Level 4,Murang'a,Kiharu,Kiharu,Mugoiri,Level 4,Government/Public entity,rural,Rural,Hospital,0,0,0,0,0,0,0
82,82,Tigoni LEVEL 4 Hospital,-1.12831,36.668633,2177.5,4.475,n_11104,n,11104,Level 4,Kiambu,Limuru,Limuru,Ngecha Tigoni,Level 4,Government/Public entity,urban,Urban,Hospital,0,0,0,0,0,0,0
83,83,Malindi Sub-County Hospital,-3.226904,40.125622,9.0,5.1,n_11555,n,11555,Level 4,Kilifi,Malindi,Malindi,Shella,Level 4,Government/Public entity,urban,Urban,Hospital,0,0,0,0,0,0,0
84,84,Kangundo Sub county Hospital,-1.29903,37.346423,1583.5,8.867,n_12177,n,12177,Level 4,Machakos,Kangundo,Kangundo,Kangundo Central,Level 4,Government/Public entity,rural,Rural,Hospital,0,0,0,0,0,0,0
85,85,Kitui County Referral Hospital,-1.372793,38.011219,1136.400024,8.04,n_12366,n,12366,Level 4,Kitui,Kitui Central,Kitui Central,Township,Level 4,Government/Public entity,urban,Urban,Hospital,0,0,0,0,0,0,0
86,86,Nairobi West Hospital,-1.30648,36.825409,1643.700073,23.6,n_13115,n,13115,Level 4,Nairobi,Langata,Langata,Nairobi West,Level 4,Private,urban,Urban,Hospital,0,0,0,0,0,0,0
87,87,Rachuonyo District Hospital,-0.505939,34.733685,1398.0,4.275,n_14022,n,14022,Level 4,Homa Bay,Kasipul,Rachuonyo South,West Kamagak,Level 4,Government/Public entity,urban,Urban,Hospital,0,0,0,0,0,0,0
88,88,Baringo County Referral Hospital,0.484916,35.74235,2013.099976,21.799999,n_14607,n,14607,Level 4,Baringo,Baringo Central,Baringo Central,Kabarnet,Level 4,Government/Public entity,urban,Urban,Hospital,0,0,0,0,0,0,0
89,89,Kajiado County Referral Hospital,-1.857235,36.771738,1685.400024,6.432,n_14652,n,14652,Level 4,Kajiado,Kajiado Central,Kajiado Central,Ildamat,Level 4,Government/Public entity,rural,Rural,Hospital,0,0,0,0,0,0,0
90,90,Kapkatet District Hospital,-0.630023,35.193417,1934.200073,15.919,n_14706,n,14706,Level 4,Kericho,Bureti,Bureti,Kapkatet,Level 4,Government/Public entity,rural,Rural,Hospital,0,0,0,0,0,0,0
91,91,Butere Sub County Hospital,0.208201,34.491908,1395.0,3.8,n_15836,n,15836,Level 4,Kakamega,Butere,Butere,Marama Central,Level 4,Government/Public entity,rural,Rural,Hospital,0,0,0,0,0,0,0
92,92,Eastend Doctors,-1.27276,36.845667,1636.300049,21.451,n_24966,n,24966,Level 3,Nairobi,Kamukunji,Kamukunji,Eastleigh North,Level 3,Private,urban,Urban,Medical Center,0,0,0,0,0,0,0
93,93,Rwambwa Sub-county Hospital,0.114453,34.092856,1151.2,9.15,n_14063,n,14063,Level 4,Siaya,Alego Usonga,Alego Usonga,Usonga,Level 4,Government/Public entity,rural,Rural,Hospital,0,0,0,0,0,0,0
94,94,Mogotio Sub County Hospital (Baringo),-0.027337,35.955276,1595.9,3.733,n_20005,n,20005,Level 4,Baringo,Mogotio,Mogotio,Mogotio,Level 4,Government/Public entity,rural,Rural,Hospital,0,0,0,0,0,0,0
95,95,Coast General Teaching and Referral Hospital (Chaani Outreach Centre),-4.031926,39.624172,22.699999,20.0,n_11274,n,11274,Level 3,Mombasa,Changamwe,Changamwe,Chaani,Level 3,Government/Public entity,urban,Urban,Hospital,0,0,0,0,0,0,0
96,96,Dr. Rasik Kantaria Jalaram Medical Services (Nairobi city),-1.258504,36.80652,1709.050293,22.961,n_13235,n,13235,Level 3,Nairobi,,,Parklands Highridge,Level 3,Faith Based Organization,urban,Urban,Health Center,0,0,0,0,0,0,0
97,97,University of Nairobi Health Services-Main Campus,-1.279232,36.809419,1714.2,6.45,n_13242,n,13242,Level 4,Nairobi,Dagoretti North,Dagoretti North,Kilimani,Level 4,Government/Public entity,urban,Urban,Hospital,0,0,0,0,0,0,0
98,98,Kirwara Sub District,-0.929247,36.943168,1716.0,4.616,n_10639,n,10639,Level 4,Murang'a,Gatanga,Gatanga,Gatanga,Level 4,Government/Public entity,rural,Rural,Hospital,0,0,0,0,0,0,0
99,99,Mombasa Hospital,-4.064973,39.680912,-7.6,20.0,n_11643,n,11643,Level 4,Mombasa,Mvita,Mvita,Mji Wa Kale/Makadara,Level 4,Private,urban,Urban,Hospital,0,0,0,0,0,0,0
100,100,Gertrudes Childrens Hospital,-1.256284,36.832474,1654.400024,12.001,n_12950,n,12950,Level 4,Nairobi,Westlands,Westlands,Karura,Level 4,Private,urban,Urban,Hospital,0,0,0,0,0,0,0
101,101,Melchezedek Hospital,-1.294553,36.755214,1771.5,20.0,n_13086,n,13086,Level 4,Nairobi,Dagoretti North,Dagoretti North,Kileleshwa,Level 4,Private,urban,Urban,Hospital,0,0,0,0,0,0,0
102,102,Dagoretti Sub-County Hospital Mutuini,-1.288998,36.696347,1871.800049,4.94,n_13105,n,13105,Level 4,Nairobi,Dagoretti South,Dagoretti South,Mutu-ini,Level 4,Government/Public entity,urban,Urban,Hospital,0,0,0,0,0,0,0
103,103,Moiben Health Centre,0.513873,35.278711,2090.2,3.933,n_15206,n,15206,Level 3,Uasin Gishu,Moiben,Moiben,Moiben,Level 3,Government/Public entity,rural,Rural,Health Center,0,0,0,0,0,0,0
104,104,Antaliya Hospital,-0.456064,39.64892,124.400002,18.966,n_24035,n,24035,Level 4,Garissa,Garissa Township,Garissa,Iftin,Level 4,Private,urban,Urban,Hospital,0,0,0,0,0,0,0
105,105,Ngara Medical Complex,-1.272384,36.832542,1648.5,13.9,n_24717,n,24717,Level 3,Nairobi,Starehe,Starehe,Ngara,Level 3,Private,urban,Urban,Hospital,0,0,0,0,0,0,0
106,106,Myer Kidney & Health Specialities Hospital,-1.298517,36.811334,1706.700073,14.144,n_30609,n,30609,Level 3,Nairobi,Kibra,Kibra,Woodley/Kenyatta Golf Course,Level 3,Private,urban,Urban,Hospital,0,0,0,0,0,0,0
107,107,Immaculate Heart Hospital Kereita,-0.992999,36.65514,2389.0,9.5,n_10518,n,10518,Level 4,Kiambu,Lari,Lari,Kijabe,Level 4,Faith Based Organization,urban,Urban,Hospital,0,0,0,0,0,0,0
108,108,Wangige Sub-County Hospital,-1.22268,36.72175,1858.5,3.857,n_111700,n,111700,Level 4,Kiambu,Kabete,Kabete,Kabete,Level 4,Government/Public entity,rural,Rural,Hospital,0,0,0,0,0,0,0
109,109,Muthara Sub-District Hospital,0.226842,37.798703,1431.599976,2.216,n_12591,n,12591,Level 4,Meru,Tigania East,Tigania East,Muthara,Level 4,Government/Public entity,rural,Rural,Hospital,0,0,0,0,0,0,0
110,110,Nightingale Medical Centre,-0.083461,34.776159,1167.300049,4.3,n_13856,n,13856,Level 4,Kisumu,Kisumu Central,Kisumu Central,Kondele,Level 4,Private,urban,Urban,Medical Center,0,0,0,0,0,0,0
111,111,Loitokitok Sub County Hospital,-2.9241,37.504893,1764.200073,21.691,n_15051,n,15051,Level 4,Kajiado,Kajiado South,Loitokitok,Kuku,Level 4,Government/Public entity,urban,Urban,Hospital,0,0,0,0,0,0,0
112,112,Mbeere Sub-County Hospital,-0.576674,37.642659,1182.200073,5.192,n_16467,n,16467,Level 4,Embu,Mbeere North,Mbeere North,Nthawa,Level 4,Government/Public entity,urban,Urban,Hospital,0,0,0,0,0,0,0
113,113,St Akidiva Mindira Hospital-Mabera,-1.234891,34.483993,1711.6,8.05,n_20020,n,20020,Level 4,Migori,Kuria West,Kuria West,Tagare,Level 4,Private,urban,Urban,Medical Center,0,0,0,0,0,0,0
114,114,Eagle Health Care,-1.265895,36.748963,1808.724,11.104,n_21146,n,21146,Level 2,Nairobi,Westlands,Westlands,Kangemi,Level 3,Private,urban,Urban,Hospital,0,0,0,0,0,0,0
115,115,Saifee Foundation Medical  Centre,-4.053393,39.671824,-10.8,20.084999,n_26444,n,26444,Level 3,Mombasa,Mvita,Mvita,Tononoka,Level 3,Faith Based Organization,urban,Urban,Medical Center,0,0,0,0,0,0,0
116,116,Likoni Subcounty Hospital,-4.085069,39.655702,-12.1,13.276,n_11522,n,11522,Level 4,Mombasa,Likoni,Likoni,Timbwani,Level 4,Government/Public entity,urban,Urban,Hospital,0,0,0,0,0,0,0
117,117,Mariakani Sub County Hospital,-3.863801,39.472095,204.8,5.1,n_11566,n,11566,Level 4,Kilifi,Kaloleni,Kaloleni,Mariakani,Level 4,Government/Public entity,urban,Urban,Hospital,0,0,0,0,0,0,0
118,118,The Mater Misericordiae Hospital (Mukuru),-1.307435,36.834142,1635.0,8.366,n_13074,n,13074,Level 5,Nairobi,Starehe,Starehe,Nairobi South,Level 5,Private,urban,Urban,Hospital,0,0,0,0,0,0,0
119,119,Migori County Referral Hospital,-1.063569,34.476669,1390.400024,3.7,n_13805,n,13805,Level 4,Migori,Suna East,Suna East,Suna Central,Level 4,Government/Public entity,urban,Urban,Hospital,0,0,0,0,0,0,0
120,120,Nyali Healthcare LTD Bamburi,-4.002053,39.699508,3.2,5.3,n_24123,n,24123,Level 2,Mombasa,Nyali,Nyali,Kadzandani,Level 2,Private,urban,Urban,Medical Clinic,0,0,0,0,0,0,0
121,121,Katani Hospital,-1.332708,36.995418,1573.8,3.5,n_24343,n,24343,Level 4,Machakos,Mavoko,Athi River,Muthwani,Level 4,Private,rural,Rural,Hospital,0,0,0,0,0,0,0
122,122,Kihara Sub County Hospital,-1.214555,36.767673,1776.700073,22.5,n_10591,n,10591,Level 4,Kiambu,Kiambaa,Kiambaa,Kihara,Level 4,Government/Public entity,rural,Rural,Hospital,0,0,0,0,0,0,0
123,123,JM Kariuki Memorial County Referral Hospital,-0.259711,36.376824,1178.300049,18.799999,n_10916,n,10916,Level 4,Nyandarua,Ol Kalou,Olkalou,Rurii,Level 4,Government/Public entity,urban,Urban,Hospital,0,0,0,0,0,0,0
124,124,Isiolo County and Referral Hospital,0.364892,37.589548,1081.300049,14.184,n_12094,n,12094,Level 4,Isiolo,Isiolo North,Isiolo,Wabera,Level 4,Government/Public entity,urban,Urban,Hospital,0,0,0,0,0,0,0
125,125,Kanyakine Sub County Hospital,-0.12917,37.675598,0.0,20.0,n_12181,n,12181,Level 4,Meru,South Imenti,Imenti South,Abogeta East,Level 4,Government/Public entity,urban,Urban,Hospital,0,0,0,0,0,0,0
126,126,Makueni County Referral Hospital,-1.783299,37.62754,1122.800049,14.394,n_12457,n,12457,Level 4,Makueni,Makueni,Makueni,Wote,Level 4,Government/Public entity,rural,Rural,Hospital,0,0,0,0,0,0,0
127,127,Mwingi Level IV Hospital,-0.942685,38.066026,1000.600037,7.8,n_12626,n,12626,Level 4,Kitui,Mwingi Central,Mwingi Central,Central,Level 4,Government/Public entity,rural,Rural,Hospital,0,0,0,0,0,0,0
128,128,Nandi Hills County Hospital,0.103749,35.1838,2020.300049,5.066,n_14179,n,14179,Level 4,Nandi,Nandi Hills,Nandi Hills,Nandi Hills,Level 4,Government/Public entity,urban,Urban,Hospital,0,0,0,0,0,0,0
129,129,Kericho District Hospital,-0.371128,35.280327,2012.9,18.0,n_14831,n,14831,Level 4,Kericho,Ainamoi,Ainamoi,Kipchebor,Level 4,Government/Public entity,urban,Urban,Hospital,0,0,0,0,0,0,0
130,130,Kitengela sub-county hospital,-1.470353,36.954419,1533.700073,9.102,n_14950,n,14950,Level 4,Kajiado,Kajiado East,Kajiado East,Oloosirkon/Sholinke,Level 4,Government/Public entity,urban,Urban,Hospital,0,0,0,0,0,0,0
131,131,Longisa County Referral Hospital,-0.860385,35.390466,2014.200073,10.188,n_15077,n,15077,Level 4,Bomet,Bomet East,Bomet East,Longisa,Level 4,Government/Public entity,rural,Rural,Hospital,0,0,0,0,0,0,0
132,132,Molo Sub County Hospital,-0.246975,35.737003,2490.7,5.416,n_15212,n,15212,Level 4,Nakuru,Molo,Molo,Molo,Level 4,Government/Public entity,urban,Urban,Hospital,0,0,0,0,0,0,0
133,133,Ngong Sub-County Hospital,-1.364818,36.654351,1973.099976,21.700001,n_15351,n,15351,Level 4,Kajiado,Kajiado North,Kajiado North,Ngong,Level 4,Government/Public entity,urban,Urban,Hospital,0,0,0,0,0,0,0
134,134,Vihiga County Referral Hospital,0.079559,34.721713,1658.6,6.26,n_16157,n,16157,Level 4,Vihiga,Vihiga,Vihiga,Lugaga-wamuluma,Level 4,Government/Public entity,urban,Urban,Hospital,0,0,0,0,0,0,0
135,135,Bungoma West Medical Services,0.592601,34.552039,1435.900024,1.985,n_20323,n,20323,Level 3,Bungoma,Kanduyi,Kanduyi,Township,Level 4,Private,urban,Urban,Hospital,0,0,0,0,0,0,0
136,136,Rapha Makueni Nursing Home,-1.783821,37.622334,1091.8,4.5,n_21676,n,21676,Level 4,Makueni,Makueni,Makueni,Wote,Level 4,Private,urban,Urban,Hospital,0,0,0,0,0,0,0
137,137,Diani Beach Hospital Main,-4.279353,39.590417,-1.7,4.02,n_25357,n,25357,Level 4,Kwale,Msambweni,Msambweni,Gambato Bongwe,Level 4,Private,urban,Urban,Hospital,0,0,0,0,0,0,0
138,138,Mandera Drugmarts Pharmacy,3.93795,41.860216,226.2,4.671,n_16312,n,16312,Level 2,Mandera,Mandera East,Mandera East,Township,Level 2,Private,urban,Urban,other,0,0,0,0,0,0,0
139,139,Damuku Pharmaceuticals Limited (Nairobi),-1.268152,36.91988,1575.800049,26.4,n_21250,n,21250,Level 2,Nairobi,,,Kayole central,Level 2,Private,urban,Urban,Stand-Alone service,0,0,0,0,0,0,0
140,140,Highgate Health Limited,-0.449073,39.637346,128.378601,8.722,n_28626414,n,28626414,Level 3,Garissa,Garissa Township,Garissa,Galbet,Level 3,Private,urban,Urban,Health Center,0,0,0,0,0,0,0
141,141,Benlane Pharmaceuticals (Busia),0.460869,34.110312,1212.5,7.98,n_118260,n,118260,Level 2,Busia,,,Burumba,Level 2,Private,urban,Urban,other,0,0,0,0,0,0,0
142,142,Wamalwa Kijana Memorial Teaching And Referral Hospital (Trans nzoia),1.004478,34.996125,1891.2,10.05,n_20394,n,20394,Level 5,Trans Nzoia,,,Matisi,Level 5,Government/Public entity,urban,Urban,other,0,0,0,0,0,0,0
143,143,Hallion Medical Centre (Nairobi),-1.205992,36.894057,1556.900024,17.143,n_27197d,n,27197d,Level 2,Nairobi,,,Zimmerman,Level 2,Private,urban,Urban,Medical Center,0,0,0,0,0,0,0
144,144,cancer care kenya limited,-1.262544,36.812617,1683.700073,15.761,n_23224,n,23224,Level 3,Nairobi,Westlands,Westlands,Parklands/Highridge,Level 3,Private,urban,Urban,Medical Center,0,0,0,0,0,0,0
145,145,Kenneth Matiba Eye and Dental Hospital,-0.937987,37.124887,1509.5,14.281,n_21413,n,21413,Level 4,Murang'a,Maragwa,muranga south,Kimorori/Wempa,Level 4,Government/Public entity,urban,Urban,Hospital,0,0,0,0,0,0,0
146,146,Almiraj Medical clinic,1.752186,40.049006,239.199997,12.328,n_23874,n,23874,Level 2,Wajir,Wajir East,Wajir East,Township,Level 2,Private,urban,Urban,Medical Center,0,0,0,0,0,0,0
147,147,Kiambu Medical Centre,-1.172571,36.830393,1686.300049,20.0,n_18032,n,18032,Level 2,Kiambu,Kiambu,Kiambu Town,Township,Level 2,Private,urban,Urban,Medical Center,0,0,0,0,0,0,0
148,148,Ankara Nursing Home,1.751883,40.050043,239.199997,13.507,n_26169,n,26169,Level 3,Wajir,Wajir East,Wajir East,Township,Level 3,Private,urban,Urban,Nursing Home,0,0,0,0,0,0,0
149,149,Nyamsenda Dispensary,0.273054,34.250572,1257.800049,18.910999,n_27166,n,27166,Level 2,Siaya,Ugenya,Ugenya,North Ugenya,Level 2,Government/Public entity,rural,Rural,Dispensary,0,0,0,0,0,0,0
150,150,Ararest Health Care Limited,-2.389133,40.696973,-64.8,5.4,n_30302,n,30302,Level 2,Lamu,Lamu West,Lamu West,Bahari,Level 2,Private,urban,Urban,Medical Clinic,0,0,0,0,0,0,0
151,151,Garissa Children Hospital,-0.450095,39.645853,122.900002,28.1,n_20359,n,20359,Level 4,Garissa,Garissa Township,Garissa,Township,Level 3,Private,urban,Urban,Nursing Home,0,0,0,0,0,0,0
152,152,NGARA MAT CLINIC,-1.272911,36.831376,1648.900024,8.0,n_23786,n,23786,Level 2,Nairobi,Starehe,Starehe,Ngara,Level 2,Government/Public entity,urban,Urban,Medical Center,0,0,0,0,0,0,0
153,153,Jeddah Hospital Limited,1.750729,40.063613,236.199997,7.504,n_25980,n,25980,Level 4,Wajir,Wajir East,Wajir East,Township,Level 4,Private,urban,Urban,Hospital,0,0,0,0,0,0,0
154,154,Wajir Central Nursing Home,1.750358,40.05705,236.899994,26.797001,n_26005236,n,26005236,Level 3,Wajir,Wajir East,Wajir East,Township,Level 3,Private,urban,Urban,Nursing Home,0,0,0,0,0,0,0
155,155,Columbia Africa Healthcare,-1.282946,36.76659,1770.0,13.179,n_27195362,n,27195362,Level 3,Nairobi,Dagoretti North,Dagoretti North,Kilimani,Level 2,Private,urban,Urban,Hospital,0,0,0,0,0,0,0
156,156,St Vincents De Paul Health Centre,-0.160591,35.194947,1275.6,5.916,n_14128,n,14128,Level 3,Kisumu,Muhoroni,Muhoroni,Muhoroni Koru,Level 4,Faith Based Organization,rural,Rural,Hospital,0,0,0,0,0,0,0
157,157,Samaad Hospital,1.75168,40.051905,238.199997,29.259001,n_19203,n,19203,Level 4,Wajir,Wajir East,Wajir East,Barwago,Level 4,Private,urban,Urban,Hospital,0,0,0,0,0,0,0
158,158,AAR Healthcare buruburu,-1.283906,36.879866,1610.300049,20.0,n_23611,n,23611,Level 2,Nairobi,Makadara,Makadara,Harambee,Level 2,Private,urban,Urban,Medical Clinic,0,0,0,0,0,0,0
159,159,Sparcare Outpatient Clinic,-4.02535,39.624985,23.299999,28.1,n_24327,n,24327,Level 2,Mombasa,Changamwe,Changamwe,Changamwe,Level 2,Private,urban,Urban,Medical Clinic,0,0,0,0,0,0,0
160,160,Kanyakwar Dispensary,-0.052953,34.767019,1307.7,4.7,n_29554,n,29554,Level 2,Kisumu,Kisumu Central,Kisumu Central,Railways,Level 2,Government/Public entity,rural,Rural,Dispensary,0,0,0,0,0,0,0
161,161,Equity Afia Nyahururu (Laikipia),0.037718,36.364309,2359.799805,6.68,n_35004,n,35004,Level 2,Laikipia,,,Igwamiti,Level 2,Private,urban,Urban,Medical Center,0,0,0,0,0,0,0
162,162,Agha Khan Mountain View (Nairobi),-1.265606,36.741086,1850.099976,20.0,n_37586,n,37586,Level 3,Nairobi,,,Mountain View,Level 3,Private,urban,Urban,Health Center,0,0,0,0,0,0,0
163,163,Mary Immaculate Sisters Dispensary,-1.292223,36.857505,1621.099976,3.475,n_13072,n,13072,Level 2,Nairobi,Makadara,Makadara,Maringo/Hamza,Level 3,Faith Based Organization,urban,Urban,Health Center,0,0,0,0,0,0,0
164,164,Ng'iya Health Centre,0.042188,34.372115,1331.4,7.285,n_13852,n,13852,Level 3,Siaya,Alego Usonga,Alego Usonga,South East Alego,Level 3,Faith Based Organization,rural,Rural,Health Center,0,0,0,0,0,0,0
165,165,Oruba Nursing and Maternity Home,-1.067616,34.463913,1403.8,7.766,n_13993,n,13993,Level 3,Migori,Suna West,Suna West,Ragana-oruba,Level 3,Private,urban,Urban,Nursing Home,0,0,0,0,0,0,0
166,166,Kamukuywa (ACK) Dispensary,0.766478,34.831527,1703.3,5.1,n_15918,n,15918,Level 2,Bungoma,Tongaren,Tongaren,Milima,Level 2,Faith Based Organization,rural,Rural,Dispensary,0,0,0,0,0,0,0
167,167,Ramaazi Nursing Home Limited,1.757989,40.060973,251.092041,20.368,n_28140,n,28140,Level 3,Wajir,Wajir East,Wajir East,Wagberi,Level 3,Private,urban,Urban,Nursing Home,0,0,0,0,0,0,0
168,168,Sasa Doctor Medical Clinic,-1.264774,36.803643,1694.900024,15.353,n_28714,n,28714,Level 2,Nairobi,Westlands,Westlands,Parklands/Highridge,Level 2,Private,urban,Urban,Medical Clinic,0,0,0,0,0,0,0
169,169,Jacaranda Maternity Hospital-Ruaka,-1.211242,36.789752,1717.5,13.481,n_30058,n,30058,Level 3,Nairobi,Westlands,Westlands,Karura,Level 3,Private,urban,Urban,Medical Center,0,0,0,0,0,0,0
170,170,Afya Medical Clinic And Nursing Home (wajir),1.744777,40.05691,234.0,17.152,n_31436719,n,31436719,Level 3,Wajir,,,township,Level 3,Private,urban,Urban,Nursing Home,0,0,0,0,0,0,0
171,171,Pro Care Medical Centre (Mombasa),-4.031906,39.712678,-17.0,17.997999,n_8112,n,8112,Level 2,Mombasa,,,Mkomani,Level 2,Private,urban,Urban,Medical Center,0,0,0,0,0,0,0
172,172,Kijabe (AIC) Hospital Marira Medical Clinic,-1.033012,36.622211,2387.0,6.52,n_10693,n,10693,Level 2,Kiambu,Lari,Lari,Lari/Kirenga,Level 2,Private,rural,Rural,Medical Center,0,0,0,0,0,0,0
173,173,Kianjokoma Health Centre,-0.396948,37.503633,1820.599976,20.9,n_12279,n,12279,Level 4,Embu,Runyenjes,Runyenjes,Kagaari North,Level 3,Government/Public entity,urban,Urban,Health Center,0,0,0,0,0,0,0
174,174,Mrima Maternity Hospital,-4.098558,39.651367,-14.4,15.759,n_19606,n,19606,Level 4,Mombasa,Likoni,Likoni,Timbwani,Level 4,Government/Public entity,urban,Urban,Hospital,0,0,0,0,0,0,0
175,175,Bay Leaf Medical Clinic,-4.05043,39.65603,-4.5,8.9,n_20382,n,20382,Level 2,Mombasa,Mvita,Mvita,Majengo,Level 3,Private,urban,Urban,Hospital,0,0,0,0,0,0,0
176,176,GALAXY HOSPITAL ISIOLO,-0.671109,34.768923,1632.400024,13.949,n_221620,n,221620,Level 4,Isiolo,Isiolo North,Isiolo,Bulla Pesa,Level 4,Private,urban,Urban,Medical Center,0,0,0,0,0,0,0
177,177,Adenville Medical Care Centre,-1.423067,36.965413,1515.0,22.5,n_25609,n,25609,Level 3,Machakos,Mavoko,Athi River,Athi River,Level 3,Private,urban,Urban,Hospital,0,0,0,0,0,0,0
178,178,Jacaranda Maternity Hospital,-1.280365,36.905549,1603.200073,14.234,n_29115,n,29115,Level 5,Nairobi,Embakasi Central,Embakasi Central,Komarock,Level 5,Private,urban,Urban,Hospital,0,0,0,0,0,0,0
179,179,Al-Bushra Nursing Home (wajir),1.752185,40.049255,239.399994,17.082001,n_36017832,n,36017832,Level 4,Wajir,,,barwaqo,Level 4,Private,urban,Urban,Nursing Home,0,0,0,0,0,0,0
180,180,AMA (Africa Muslim Agency) Clinic,-1.059216,37.114082,1466.599976,4.86,n_10023,n,10023,Level 2,Kiambu,Thika Town,Thika Town,Kamenu,Level 2,Faith Based Organization,urban,Urban,Health Center,0,0,0,0,0,0,0
181,181,Maimoon Hospital,-3.209311,40.113303,54.3,3.7,n_11358,n,11358,Level 2,Kilifi,Magarini,Magarini,Sabaki,Level 4,Private,urban,Urban,Hospital,0,0,0,0,0,0,0
182,182,St Lukes ( ACK) Nursing Home(Kaloleni),-3.812327,39.633042,217.9,6.525,n_11818,n,11818,Level 4,Kilifi,Kaloleni,Kaloleni,Kaloleni,Level 3,Faith Based Organization,rural,Rural,Nursing Home,0,0,0,0,0,0,0
183,183,St Assisi Sisters of Mary Immaculate Nursing Home,-1.398733,36.945973,1579.900024,20.4,n_12745,n,12745,Level 3,Machakos,Mavoko,Athi River,Syokimau/Mulolongo,Level 3,Private,rural,Rural,Nursing Home,0,0,0,0,0,0,0
184,184,AAR City Centre Clinic,-1.284207,36.821012,1676.900024,12.627,n_12861,n,12861,Level 2,Nairobi,Starehe,Starehe,Nairobi Central,Level 2,Private,urban,Urban,Medical Center,0,0,0,0,0,0,0
185,185,Chembulet Health Centre,0.616471,35.425673,2211.1,7.24,n_14317,n,14317,Level 3,Uasin Gishu,Moiben,Moiben,Tembelio,Level 3,Government/Public entity,rural,Rural,Health Center,0,0,0,0,0,0,0
186,186,Ortum Mission Hospital,1.437364,35.354692,1397.300049,2.333,n_15446,n,15446,Level 4,West Pokot,Pokot South,KIPKOMO,Batei,Level 4,Faith Based Organization,rural,Rural,other,0,0,0,0,0,0,0
187,187,Rumuruti District Hospital,0.271587,36.533175,1837.599976,5.4,n_15502,n,15502,Level 4,Laikipia,Laikipia West,Laikipia West,Rumuruti Township,Level 4,Government/Public entity,urban,Urban,Hospital,0,0,0,0,0,0,0
188,188,Subukia Sub County Hospital,0.002573,36.230806,1991.2,3.616,n_15678,n,15678,Level 4,Nakuru,Subukia,Subukia,Subukia,Level 4,Government/Public entity,rural,Rural,Hospital,0,0,0,0,0,0,0
189,189,Chwele Sub County Hospital,0.734327,34.577893,1606.099976,4.366,n_15860,n,15860,Level 4,Bungoma,Kabuchai,Kabuchai,Kabuchai/Chwele,Level 4,Government/Public entity,urban,Urban,Hospital,0,0,0,0,0,0,0
190,190,Emali model health Centre,-2.074388,37.461345,1145.0,24.049999,n_18260,n,18260,Level 3,Makueni,Kibwezi West,Kibwezi West,Emali/Mulala,Level 3,Government/Public entity,urban,Urban,Health Center,0,0,0,0,0,0,0
191,191,Gachororo Health Centre,-1.08664,37.020053,1538.7,4.7,n_18608,n,18608,Level 3,Kiambu,Juja,Juja,Juja,Level 3,Government/Public entity,urban,Urban,Health Center,0,0,0,0,0,0,0
192,192,Medicatia Hospital,-1.070507,35.869827,1933.7,3.48,n_18784,n,18784,Level 4,Narok,Narok North,Narok North,Narok Town,Level 4,Private,urban,Urban,Hospital,0,0,0,0,0,0,0
193,193,LAD NAN Hospital,-1.269832,36.840828,1638.800049,17.362,n_19316,n,19316,Level 4,Nairobi,Starehe,Starehe,Pangani,Level 4,Private,urban,Urban,Hospital,0,0,0,0,0,0,0
194,194,Consolata Maternity and Children's Hospital,0.004905,37.089506,1951.900024,5.98,n_21878,n,21878,Level 4,Laikipia,Laikipia East,Laikipia East,Nanyuki,Level 4,Faith Based Organization,urban,Urban,Hospital,0,0,0,0,0,0,0
195,195,South Rift Hospital,-0.380502,35.259626,1913.400024,14.301,n_30479,n,30479,Level 4,Kericho,Ainamoi,Ainamoi,Kipchebor,Level 4,Private,urban,Urban,Hospital,0,0,0,0,0,0,0
196,196,The Mater Misericordiae Cbd (Nairobi),-1.288147,36.827498,1658.0,21.686001,n_35758824,n,35758824,Level 3,Nairobi,,,Starehe,Level 3,Faith Based Organization,urban,Urban,Medical Center,0,0,0,0,0,0,0
197,197,Nyamache Sub County Referral Hospital,-0.855705,34.828766,1782.1,3.25,n_13891,n,13891,Level 4,Kisii,Bobasi,Bobasi,Basi Central,Level 4,Government/Public entity,rural,Rural,Hospital,0,0,0,0,0,0,0
198,198,Kinara Hospital,-0.581304,34.935325,2024.8,3.85,n_13913,n,13913,Level 4,Nyamira,West Mugirango,Nyamira,Township,Level 4,Private,urban,Urban,Hospital,0,0,0,0,0,0,0
199,199,Lolgorian Sub District Hosp,-1.233982,34.799663,1601.4,4.36,n_15068,n,15068,Level 4,Narok,Kilgoris,Transmara West,Lolgorian,Level 4,Government/Public entity,rural,Rural,Hospital,0,0,0,0,0,0,0
200,200,Nairagie-Enkare Health Centre,-1.046389,36.162951,2212.9,7.6,n_15277,n,15277,Level 3,Narok,Narok East,Narok East,Keekonyokie,Level 3,Government/Public entity,rural,Rural,Hospital,0,0,0,0,0,0,0
201,201,Ololulunga Sub County Hospital,-1.002633,35.664702,1935.099976,9.25,n_15423,n,15423,Level 4,Narok,Narok South,Narok South,Ololulung'a,Level 4,Government/Public entity,rural,Rural,Hospital,0,0,0,0,0,0,0
202,202,Romkan Medical Centre,-1.091707,37.023215,1505.0,21.6,n_21923,n,21923,Level 2,Kiambu,Juja,Juja,Juja,Level 2,Private,urban,Urban,Medical Center,0,0,0,0,0,0,0
203,203,Mediheal Hospital Parklands,-1.262366,36.822517,1674.300049,16.047001,n_26331,n,26331,Level 4,Nairobi,Westlands,Westlands,Parklands/Highridge,Level 4,Private,urban,Urban,Hospital,0,0,0,0,0,0,0
204,204,Ruiru Nursing Hospital Ltd,-1.150243,36.942347,1530.400024,13.0,n_30307,n,30307,Level 3,Kiambu,Ruiru,Ruiru,Biashara,Level 3,Private,urban,Urban,Nursing Home,0,0,0,0,0,0,0
205,205,Kigumo Sub County Hospital,-0.804737,36.961395,1772.599976,3.26,n_10588,n,10588,Level 4,Murang'a,Kigumo,Kigumo,Kigumo,Level 4,Government/Public entity,rural,Rural,Hospital,0,0,0,0,0,0,0
206,206,Mt Kenya Sub County Hospital,-0.426664,36.935643,1852.400024,3.65,n_10739,n,10739,Level 4,Nyeri,Nyeri Town,Nyeri Central,Kamakwa/Mukaro,Level 4,Government/Public entity,urban,Urban,Hospital,0,0,0,0,0,0,0
207,207,Ruiru Hospital Limited,-1.144285,36.958084,1545.0,4.385,n_10974,n,10974,Level 4,Kiambu,Ruiru,Ruiru,Biashara,Level 3,Private,urban,Urban,Nursing Home,0,0,0,0,0,0,0
208,208,Kwale Sub County Hospital,-4.175141,39.455445,394.299988,3.75,n_115070,n,115070,Level 4,Kwale,Matuga,Matuga,Tsimba Golini,Level 4,Government/Public entity,rural,Rural,Hospital,0,0,0,0,0,0,0
209,209,Lungalunga Sub County Hospital,-4.553731,39.120025,35.300003,5.2,n_11526,n,11526,Level 4,Kwale,Lunga Lunga,Lunga Lunga,Vanga,Level 4,Government/Public entity,urban,Urban,Hospital,0,0,0,0,0,0,0
210,210,Pandya Memorial Hospital,-4.068131,39.671099,-0.4,13.326,n_11734,n,11734,Level 4,Mombasa,Mvita,Mvita,Shimanzi/Ganjoni,Level 4,Private,urban,Urban,Hospital,0,0,0,0,0,0,0
211,211,Taveta Sub County Hospital,-3.393863,37.677056,805.7,7.82,n_11840,n,11840,Level 4,Taita Taveta,Taveta,Taveta,Bomani,Level 4,Government/Public entity,rural,Rural,Hospital,0,0,0,0,0,0,0
212,212,Githongo Sub-County Hospital,-0.005745,37.592617,1915.599976,20.0,n_12041,n,12041,Level 4,Meru,Central Imenti,Imenti Central,Abothuguchi West,Level 4,Government/Public entity,rural,Rural,Health Center,0,0,0,0,0,0,0
213,213,Kilungu Sub County Hospital,-1.786091,37.360687,2006.1,5.36,n_12314,n,12314,Level 4,Makueni,Kaiti,Kaiti,Kilungu,Level 4,Government/Public entity,rural,Rural,Hospital,0,0,0,0,0,0,0
214,214,Magutuni Subcounty Hospital,-0.224963,37.736614,1205.9,6.68,n_12445,n,12445,Level 4,Tharaka-Nithi,Maara,Mwimbi,Mwimbi,Level 4,Government/Public entity,rural,Rural,Hospital,0,0,0,0,0,0,0
215,215,Pumwani Maternity Hospital,-1.280312,36.845852,1635.800049,13.209,n_13156,n,13156,Level 4,Nairobi,Kamukunji,Kamukunji,Pumwani,Level 4,Government/Public entity,urban,Urban,Hospital,0,0,0,0,0,0,0
216,216,Al-Siha Nursing Home,3.934982,41.850892,206.0,3.2,n_13287,n,13287,Level 3,Mandera,Mandera East,Mandera East,Township,Level 3,Private,urban,Urban,Nursing Home,0,0,0,0,0,0,0
217,217,Bama Hospital,0.056455,34.294006,1307.5,6.066,n_13493,n,13493,Level 4,Siaya,Alego Usonga,Alego Usonga,Siaya Township,Level 4,Private,urban,Urban,Hospital,0,0,0,0,0,0,0
218,218,Nyabondo Mission Hospital,-0.381267,34.978462,1648.0,4.825,n_13864,n,13864,Level 4,Kisumu,Nyakach,Nyakach,South East Nyakach,Level 4,Faith Based Organization,rural,Rural,Hospital,0,0,0,0,0,0,0
219,219,Ukwala Sub County Hospital,0.192684,34.188442,1261.6,4.533,n_14156,n,14156,Level 4,Siaya,Ugenya,Ugenya,Ukwala,Level 4,Government/Public entity,rural,Rural,Hospital,0,0,0,0,0,0,0
220,220,Eldoret Hospital,0.516444,35.27947,2073.299805,19.580999,n_14435,n,14435,Level 4,Uasin Gishu,Ainabkoi,Ainabkoi,Kapsoya,Level 4,Private,urban,Urban,Hospital,0,0,0,0,0,0,0
221,221,Kapsara Sub County Hospital,1.091845,35.154982,1860.6,8.862,n_14753,n,14753,Level 3,Trans Nzoia,Cherangany,Cherangany,Makutano,Level 3,Government/Public entity,rural,Rural,Health Center,0,0,0,0,0,0,0
222,222,Mount Olive Hospital,-1.398278,36.764677,1715.900024,15.965,n_15581,n,15581,Level 4,Kajiado,Kajiado North,Kajiado North,Ongata Rongai,Level 4,Private,urban,Urban,Hospital,0,0,0,0,0,0,0
223,223,Lumakanda  County Hospital,0.63484,34.976229,1769.700073,19.691,n_15969,n,15969,Level 4,Kakamega,Lugari,Lugari,Lumakanda,Level 4,Government/Public entity,rural,Rural,Hospital,0,0,0,0,0,0,0
224,224,Nambale Sub County Hospital,0.455657,34.238861,1211.700073,6.9,n_16066,n,16066,Level 4,Busia,Nambale,Nambale,Nambale,Level 4,Government/Public entity,urban,Urban,Hospital,0,0,0,0,0,0,0
225,225,Holsoms Maternity & Nursing Home,-0.664672,34.844935,1855.2,7.38,n_22795,n,22795,Level 3,Nyamira,Kitutu Masaba,Manga,Kamera,Level 3,Private,urban,Urban,Nursing Home,0,0,0,0,0,0,0
226,226,Jotram Medical Centre,-1.094871,37.080644,1487.800049,4.033,n_23561,n,23561,Level 2,Kiambu,Juja,Juja,Witeithie,Level 2,Private,rural,Rural,Medical Center,0,0,0,0,0,0,0
227,227,Isiolo Drug Mart Medical Centre,0.351184,37.58233,1088.400024,11.36,n_25338,n,25338,Level 3,Isiolo,Isiolo North,Isiolo,Bulla Pesa,Level 3,Private,urban,Urban,Medical Center,0,0,0,0,0,0,0
228,228,Plaza Specialist Hospital ( Machakos),-1.523635,37.267089,1446.0,11.06,n_28895,n,28895,Level 4,Machakos,Machakos Town,Machakos,Machakos Central,Level 4,Private,urban,Urban,Hospital,0,0,0,0,0,0,0
229,229,Top View Medical Center,-0.425442,36.956433,1791.5,20.0,n_29096469,n,29096469,Level 3,Nyeri,Nyeri Town,Nyeri Central,Rware,Level 3,Private,urban,Urban,Medical Center,0,0,0,0,0,0,0
230,230,The Savannah Hospital Limited,-1.298926,36.812344,1703.800049,20.408001,n_29394,n,29394,Level 4,Nairobi,Kibra,Kibra,Woodley/Kenyatta Golf Course,Level 4,Private,urban,Urban,Hospital,0,0,0,0,0,0,0
231,231,Igegania Level 4 Hospital,-0.973888,36.929165,1692.1,5.94,n_10338,n,10338,Level 4,Kiambu,Gatundu North,Gatundu North,Mang'u,Level 4,Government/Public entity,rural,Rural,Hospital,0,0,0,0,0,0,0
232,232,Aga Khan Hospital (Mombasa),-4.070244,39.670434,-6.1,20.0,n_11203,n,11203,Level 4,Mombasa,Mvita,Mvita,Shimanzi/Ganjoni,Level 4,Private,urban,Urban,Hospital,0,0,0,0,0,0,0
233,233,Mwatate Sub-County Hospital,-3.50759,38.368931,961.6,4.88,n_11695,n,11695,Level 4,Taita Taveta,Mwatate,Mwatate,Chawia,Level 4,Government/Public entity,rural,Rural,Hospital,0,0,0,0,0,0,0
234,234,St Theresa Hospital (Kiirua),0.126338,37.567089,1957.200073,17.916,n_12303,n,12303,Level 4,Meru,Buuri,Buuri East,Kiirua/Naari,Level 4,Faith Based Organization,rural,Rural,Hospital,0,0,0,0,0,0,0
235,235,Mbooni Sub County Hospital,-1.658585,37.454132,1904.5,5.76,n_12508,n,12508,Level 4,Makueni,Mbooni,Mbooni,Mbooni,Level 4,Government/Public entity,rural,Rural,Hospital,0,0,0,0,0,0,0
236,236,Care Hospital,-1.280388,36.846795,1634.0,11.653,n_12865,n,12865,Level 4,Nairobi,Kamukunji,Kamukunji,California,Level 4,Private,urban,Urban,Hospital,0,0,0,0,0,0,0
237,237,Kombewa County Referral Hospital,-0.103641,34.517656,1225.099976,16.523001,n_13714,n,13714,Level 4,Kisumu,Seme,Seme,Central Seme,Level 4,Government/Public entity,rural,Rural,Hospital,0,0,0,0,0,0,0
238,238,Ndanai Sub County Hospital,-0.843425,35.0929,1840.200073,15.424,n_15322,n,15322,Level 4,Bomet,Sotik,Sotik,Ndanai/Abosi,Level 4,Government/Public entity,rural,Rural,Hospital,0,0,0,0,0,0,0
239,239,Transmara West Sub County Hospital,-1.004574,34.879185,1786.200073,20.0,n_15739,n,15739,Level 4,Narok,Kilgoris,Transmara West,Shankoe,Level 4,Government/Public entity,urban,Urban,Medical Center,0,0,0,0,0,0,0
240,240,Holy Family Nangina Mission Hospital,0.277537,34.105179,0.0,20.0,n_16073,n,16073,Level 4,Busia,Funyula,Samia,Nangina,Level 4,Faith Based Organization,rural,Rural,Hospital,0,0,0,0,0,0,0
241,241,Sirisia Sub County Hospital,0.754233,34.508627,1520.2,5.85,n_16130,n,16130,Level 4,Bungoma,Sirisia,Sirisia,Malakisi/South Kulisiru,Level 4,Government/Public entity,rural,Rural,Hospital,0,0,0,0,0,0,0
242,242,St. Peters Orthopedic And Surgical Speciality Centre,-1.252483,36.68609,2005.1,5.5,n_17983,n,17983,Level 4,Kiambu,Kikuyu,Kikuyu,Kinoo,Level 4,Private,rural,Rural,Hospital,0,0,0,0,0,0,0
243,243,Royal Gardens Hospital,1.014442,35.004626,1879.599976,20.9,n_23785,n,23785,Level 4,Trans Nzoia,Saboti,Saboti,Matisi,Level 4,Private,urban,Urban,Hospital,0,0,0,0,0,0,0
244,244,Mediheal Hospital (Eastleigh),-1.286428,36.852286,1624.5,18.775,n_2398526,n,2398526,Level 4,Nairobi,Kamukunji,Kamukunji,Eastleigh South,Level 4,Private,urban,Urban,Hospital,0,0,0,0,0,0,0
245,245,The Labib Hospital,-1.277971,36.851317,1630.5,3.9,n_24202,n,24202,Level 3,Nairobi,Kamukunji,Kamukunji,California,Level 5,Private,urban,Urban,Hospital,0,0,0,0,0,0,0
246,246,Starehe Healthcare Limited,-1.27142,36.849698,1632.099976,25.886999,n_24291,n,24291,Level 2,Nairobi,Kamukunji,Kamukunji,California,Level 4,Private,urban,Urban,Hospital,0,0,0,0,0,0,0
247,247,Engineer County Hospital,-0.594502,36.575159,2463.199951,20.9,n_10171,n,10171,Level 4,Nyandarua,Kinangop,Kinangop,Gathara,Level 4,Government/Public entity,rural,Rural,Hospital,0,0,0,0,0,0,0
248,248,Karatina District Hospital,-0.476704,37.130529,1749.900024,5.82,n_10485,n,10485,Level 4,Nyeri,Mathira,Mathira East,Karatina Town,Level 4,Government/Public entity,urban,Urban,Hospital,0,0,0,0,0,0,0
249,249,Ruiru Sub-County Hospital,-1.144722,36.956633,1514.5,8.65,n_10973,n,10973,Level 4,Kiambu,Ruiru,Ruiru,Biashara,Level 4,Government/Public entity,urban,Urban,Hospital,0,0,0,0,0,0,0
250,250,Hola District Hospital,-1.498747,40.030063,40.700001,7.396,n_11411,n,11411,Level 4,Tana River,Galole,Galole,Chewani,Level 4,Government/Public entity,urban,Urban,Hospital,0,0,0,0,0,0,0
251,251,Lamu County Referral Hospital,-2.278942,40.906639,-21.4,5.05,n_11512,n,11512,Level 4,Lamu,Lamu West,Lamu Central,Mkomani,Level 4,Government/Public entity,urban,Urban,Hospital,0,0,0,0,0,0,0
252,252,Mpeketoni Sub-County Hospital,-2.391943,40.697167,-19.9,4.633,n_11649,n,11649,Level 4,Lamu,Lamu West,Lamu West,Bahari,Level 4,Government/Public entity,urban,Urban,Hospital,0,0,0,0,0,0,0
253,253,Msambweni County Referral Hospital,-4.118241,39.248518,235.7,4.2,n_11655,n,11655,Level 4,Kwale,Msambweni,Msambweni,Ramisi,Level 4,Government/Public entity,rural,Rural,Hospital,0,0,0,0,0,0,0
254,254,Chuka County Refferal Hospital,-0.32999,37.655943,1386.700073,1.471,n_11973,n,11973,Level 5,Tharaka-Nithi,Chuka/Igambang'ombe,Chuka,Karingani,Level 5,Government/Public entity,urban,Urban,Hospital,0,0,0,0,0,0,0
255,255,Kathiani Sub County Hospital,-1.413799,37.328287,1391.5,16.950001,n_12230,n,12230,Level 4,Machakos,Kathiani,Kathiani,Kathiani Central,Level 4,Government/Public entity,rural,Rural,Hospital,0,0,0,0,0,0,0
256,256,Maua Methodist Hospital,0.230842,37.942388,1642.9,4.9,n_12492,n,12492,Level 4,Meru,Igembe South,Igembe South,Maua,Level 4,Faith Based Organization,urban,Urban,Hospital,0,0,0,0,0,0,0
257,257,Coptic Hospital,-1.29787,36.797703,1733.599976,5.2,n_12905,n,12905,Level 4,Nairobi,Dagoretti North,Dagoretti North,Kilimani,Level 4,Private,urban,Urban,Hospital,0,0,0,0,0,0,0
258,258,Nairobi South Hospital,-1.313937,36.828503,1643.400024,23.132,n_13112,n,13112,Level 4,Nairobi,Langata,Langata,South C,Level 4,Private,urban,Urban,Hospital,0,0,0,0,0,0,0
259,259,St Patrick Health Care Centre,-1.267398,36.918314,1572.300049,28.1,n_13222,n,13222,Level 2,Nairobi,Embakasi Central,Embakasi Central,Kayole North,Level 3,Private,urban,Urban,Hospital,0,0,0,0,0,0,0
260,260,Bondo County Referral Hospital,-0.095285,34.274641,1266.6,6.9,n_13507,n,13507,Level 4,Siaya,Bondo,Bondo,West Sakwa,Level 4,Government/Public entity,urban,Urban,Hospital,0,0,0,0,0,0,0
261,261,Gucha Sub County Referral Hospital,-0.79631,34.723723,1585.3,7.602,n_13594,n,13594,Level 4,Kisii,Bomachoge Chache,Bomachoge Chache,Boochi/Tendere,Level 4,Government/Public entity,urban,Urban,Hospital,0,0,0,0,0,0,0
262,262,Homa Bay County Teaching and Referral Hospital,-0.533072,34.461985,1195.0,5.44,n_13608,n,13608,Level 4,Homa Bay,Homa Bay Town,Homa Bay Town,Homa Bay Central,Level 4,Government/Public entity,urban,Urban,Hospital,0,0,0,0,0,0,0
263,263,Kehancha Sub-County Hospital,-1.17972,34.627837,1458.6,5.95,n_13726,n,13726,Level 4,Migori,Kuria West,Kuria West,Bukira East,Level 4,Government/Public entity,urban,Urban,Hospital,0,0,0,0,0,0,0
264,264,Nduru Sub County Referral Hospital,-0.810599,34.629776,1499.599976,26.198,n_13847,n,13847,Level 4,Kisii,South Mugirango,South Mugirango,Bogetenga,Level 4,Government/Public entity,urban,Urban,Hospital,0,0,0,0,0,0,0
265,265,AIC Litein Mission Hospital,-0.588534,35.189068,1948.400024,15.052,n_14178,n,14178,Level 4,Kericho,Bureti,Bureti,Litein,Level 4,Faith Based Organization,urban,Urban,Hospital,0,0,0,0,0,0,0
266,266,Sigowet Sub-District Hospital,-0.395721,35.048688,1791.800049,5.76,n_15568,n,15568,Level 4,Kericho,Sigowet/Soin,Sigowet/Soin,Sigowet,Level 4,Government/Public entity,rural,Rural,Hospital,0,0,0,0,0,0,0
267,267,Tenwek Mission Hospital,-0.744079,35.360072,2007.599976,5.3,n_15719,n,15719,Level 5,Bomet,Bomet Central,Bomet Central,Silibwet Township,Level 5,Faith Based Organization,urban,Urban,Hospital,0,0,0,0,0,0,0
268,268,Alupe Sub County Referral Hospital,0.497863,34.13046,1153.300049,2.233,n_15795,n,15795,Level 4,Busia,Teso South,Teso South,Ang'orom,Level 4,Government/Public entity,urban,Urban,Hospital,0,0,0,0,0,0,0
269,269,Kimilili Subcounty Hospital,0.789323,34.712363,1695.099976,3.828,n_15950,n,15950,Level 4,Bungoma,Kimilili,Kimilili,Kibingei,Level 4,Government/Public entity,rural,Rural,other,0,0,0,0,0,0,0
270,270,Navakholo Sub County Hospital,0.413558,34.68242,1528.1,3.0,n_16078,n,16078,Level 4,Kakamega,Navakholo,Navakholo,Bunyala Central,Level 4,Government/Public entity,rural,Rural,Hospital,0,0,0,0,0,0,0
271,271,Miathene District Hospital,0.150751,37.791359,1436.2,2.75,n_16234,n,16234,Level 4,Meru,Tigania West,Tigania West,Kianjai,Level 4,Government/Public entity,rural,Rural,Hospital,0,0,0,0,0,0,0
272,272,Mediheal Hospital (Nakuru),-0.285935,36.108108,1856.0,2.6,n_18266,n,18266,Level 4,Nakuru,Nakuru Town East,Nakuru East,Menengai,Level 4,Private,urban,Urban,Hospital,0,0,0,0,0,0,0
273,273,Mercylight Hospital,-1.17295,36.830488,1684.599976,20.4,n_18597,n,18597,Level 4,Kiambu,Kiambu,Kiambu Town,Township,Level 4,Private,urban,Urban,Hospital,0,0,0,0,0,0,0
274,274,St.Teresa Hospital Kiambu,-1.199175,36.836049,1658.300049,24.9,n_20378,n,20378,Level 4,Kiambu,Kiambu,Kiambu Town,Township,Level 4,Private,urban,Urban,Hospital,0,0,0,0,0,0,0
275,275,Reliance Hospital Limited,-1.315691,36.825496,1645.200073,9.52,n_25246175,n,25246175,Level 4,Nairobi,Langata,Langata,South C,Level 4,Private,urban,Urban,Hospital,0,0,0,0,0,0,0
276,276,Mahnaz Nursing Home,3.932396,41.832679,191.1,2.483,n_26888,n,26888,Level 3,Mandera,Mandera East,Mandera East,Neboi,Level 3,Private,rural,Rural,Nursing Home,0,0,0,0,0,0,0
277,277,Kisii Specialist Hospital LTD,-0.672093,34.771698,1648.900024,26.827,n_30060,n,30060,Level 4,Kisii,Kitutu Chache South,Kitutu Chache South,Kitutu Central,Level 4,Private,urban,Urban,Hospital,0,0,0,0,0,0,0
278,278,New Hope Medical Centre (Machakos),-1.40889,37.564611,1249.0,5.38,n_0,n,0,Level 2,Machakos,,,Wamunyu,Level 2,Private,rural,Rural,Medical Clinic,0,0,0,0,0,0,0
279,279,Wakwa Pharmacy And Lanoratory (Nairobi),-1.287521,36.741415,1801.700073,5.9,n_10844d,n,10844d,Level 2,Nairobi,,,Kawangware,Level 2,Private,urban,Urban,Stand-Alone service,0,0,0,0,0,0,0
280,280,Kisimani Health Services,-4.026016,39.695745,-6.6,7.313,n_11489,n,11489,Level 2,Mombasa,Nyali,Nyali,Frere Town,Level 2,Private,rural,Rural,Dispensary,0,0,0,0,0,0,0
281,281,Consolata Sisters Timbwani dispensary (Stella Maris),-4.095447,39.672172,-19.5,5.4,n_11832,n,11832,Level 2,Mombasa,Likoni,Likoni,Timbwani,Level 2,Faith Based Organization,urban,Urban,Dispensary,0,0,0,0,0,0,0
282,282,Wema Centre Medical Clinic,-3.992978,39.707338,-10.3,11.2,n_11902,n,11902,Level 2,Mombasa,Kisauni,Kisauni,Shanzu,Level 2,Faith Based Organization,urban,Urban,Dispensary,0,0,0,0,0,0,0
283,283,Whitelife Health Centre Ltd (Mombasa),-3.970194,39.73632,11.0,9.237,n_13490,n,13490,Level 2,Mombasa,,,Shanzu,Level 2,Private,urban,Urban,Dispensary,0,0,0,0,0,0,0
284,284,Gesusu Sub-County Referral Hospital,-0.873757,34.909459,0.0,20.9,n_13564,n,13564,Level 4,Kisii,Nyaribari Masaba,Nyaribari Masaba,Gesusu,Level 4,Government/Public entity,rural,Rural,Hospital,0,0,0,0,0,0,0
285,285,Visram Medicare (Siaya),-0.210614,34.337993,1133.8,4.133,n_147010965,n,147010965,Level 2,Siaya,,,North uyoma,Level 2,Private,rural,Rural,other,0,0,0,0,0,0,0
286,286,Kitale Nursing Home,1.024363,34.992223,1873.7,14.7,n_14949,n,14949,Level 3,Trans Nzoia,Saboti,Saboti,Matisi,Level 3,Private,urban,Urban,Nursing Home,0,0,0,0,0,0,0
287,287,Moi's Bridge Health Centre,0.873009,35.122968,1815.300049,15.275,n_15209,n,15209,Level 3,Uasin Gishu,Soy,Soy,Moi's Bridge,Level 3,Government/Public entity,rural,Rural,Health Center,0,0,0,0,0,0,0
288,288,Sigalagala Polytechnic Dispensary (Kakamega),0.194831,34.760843,1573.300049,11.852,n_1553,n,1553,Level 2,Kakamega,,,Isukha,Level 2,Government/Public entity,rural,Rural,other,0,0,0,0,0,0,0
289,289,The Aga Khan University Medical Clinic (Meru),0.04645,37.652755,1579.300049,16.854,n_18328,n,18328,Level 4,Meru,North Imenti,Imenti North,Municipality,Level 4,Private,urban,Urban,Medical Clinic,0,0,0,0,0,0,0
290,290,Hilwa Pharmacy and Clinic,-0.446136,39.64385,162.7,6.06,n_19008,n,19008,Level 2,Garissa,Garissa Township,Garissa,Township,Level 2,Private,urban,Urban,Medical Center,0,0,0,0,0,0,0
291,291,Chiromo Lane Medical Centre (Nairobi city),-1.269232,36.809876,1676.099976,16.076,n_19465,n,19465,Level 3,Nairobi,,,Parklands Highridge,Level 3,Private,urban,Urban,Medical Center,0,0,0,0,0,0,0
292,292,Sarara Chemist,1.020623,35.000449,1883.300049,16.531,n_19757,n,19757,Level 2,Trans Nzoia,Saboti,Saboti,Matisi,Level 2,Private,urban,Urban,Medical Clinic,0,0,0,0,0,0,0
293,293,Centre for Heart Disease and Diabetes,1.027379,34.99975,1882.0,27.450001,n_19857,n,19857,Level 2,Trans Nzoia,Saboti,Saboti,Tuwani,Level 2,Private,urban,Urban,Medical Center,0,0,0,0,0,0,0
294,294,Savani Medical Centre,-4.081277,39.658072,-22.6,3.9,n_20904,n,20904,Level 2,Mombasa,Likoni,Likoni,Timbwani,Level 2,Private,urban,Urban,Nursing Home,0,0,0,0,0,0,0
295,295,Starshine Medical Centre,-1.19729,36.9249,1519.5,4.4,n_23061,n,23061,Level 2,Kiambu,Ruiru,Ruiru,Kahawa Wendani,Level 2,Private,urban,Urban,Stand-Alone service,0,0,0,0,0,0,0
296,296,Nairobi Place Treatment Centre Tumaini Ltd,-1.336774,36.754805,1788.400024,10.5,n_23097,n,23097,Level 2,Nairobi,Langata,Langata,Karen,Level 3,Private,urban,Urban,Health Center,0,0,0,0,0,0,0
297,297,Diani Beach Hospital,-4.088374,39.651656,-11.3,13.9,n_24082,n,24082,Level 4,Mombasa,Likoni,Likoni,Timbwani,Level 4,Private,urban,Urban,Hospital,0,0,0,0,0,0,0
298,298,Visiongate Eye Care Consultant-Busia,0.460704,34.110657,1209.700073,28.566,n_24129,n,24129,Level 2,Busia,Matayos,Matayos,Burumba,Level 2,Private,urban,Urban,Stand-Alone service,0,0,0,0,0,0,0
299,299,Royal Dental Clinic,-0.531943,34.457794,1168.700073,4.783,n_24604,n,24604,Level 2,Homa Bay,Homa Bay Town,Homa Bay Town,Homa Bay Central,Level 2,Private,urban,Urban,Stand-Alone service,0,0,0,0,0,0,0
300,300,Eldo Eye Center Limited,0.514184,35.28006,2078.599854,20.0,n_24642,n,24642,Level 2,Uasin Gishu,Ainabkoi,Ainabkoi,Kapsoya,Level 4,Private,urban,Urban,Hospital,0,0,0,0,0,0,0
301,301,Breetons Medical Centre,-1.004169,34.881083,1770.200073,6.36,n_24903138,n,24903138,Level 2,Narok,Kilgoris,Transmara West,Shankoe,Level 3,Private,rural,Rural,Hospital,0,0,0,0,0,0,0
302,302,Fairmont Hospital,-0.087289,34.768527,1177.300049,15.966,n_24940,n,24940,Level 4,Kisumu,Kisumu Central,Kisumu Central,Railways,Level 4,Private,urban,Urban,Hospital,0,0,0,0,0,0,0
303,303,The God's Favour Nursing Home,0.869416,35.122084,1822.800049,2.985,n_25674,n,25674,Level 2,Uasin Gishu,Soy,Soy,Moi's Bridge,Level 3,Private,rural,Rural,Nursing Home,0,0,0,0,0,0,0
304,304,Care Tech Medical Limited,-1.189244,36.84056,1660.0,20.0,n_25799,n,25799,Level 3,Kiambu,Kiambu,Kiambu Town,Township,Level 3,Private,urban,Urban,Nursing Home,0,0,0,0,0,0,0
305,305,Mombasa Cancer Center,-4.066323,39.669982,0.2,17.034,n_27040,n,27040,Level 3,Mombasa,Mvita,Mvita,Shimanzi/Ganjoni,Level 3,Private,urban,Urban,Health Center,0,0,0,0,0,0,0
306,306,St. Gallen Oncollogy Network,0.282932,34.754894,1574.5,20.9,n_28378,n,28378,Level 2,Kakamega,Lurambi,Lurambi,Shirere,Level 2,Private,urban,Urban,other,0,0,0,0,0,0,0
307,307,Lifecare Hospital (Kikuyu),-1.245032,36.662106,2032.900024,2.34,n_28652,n,28652,Level 4,Kiambu,Kikuyu,Kikuyu,Kikuyu,Level 4,Private,urban,Urban,Hospital,0,0,0,0,0,0,0
308,308,Aroha Cancer Centre,0.060037,37.635244,1696.5,20.0,n_29696,n,29696,Level 3,Meru,North Imenti,Imenti North,Municipality,Level 3,Private,urban,Urban,Medical Center,0,0,0,0,0,0,0
309,309,The Webuye Hospital Limited,0.611799,34.768446,0.0,20.0,n_29883,n,29883,Level 3,Bungoma,Webuye East,Webuye East,Maraka,Level 4,Private,urban,Urban,Hospital,0,0,0,0,0,0,0
310,310,Rosa Gracia Specialists Hospital Clinic Limited,-0.539651,37.457397,1320.599976,25.790001,n_30407,n,30407,Level 3,Embu,Manyatta,Manyatta,Kirimari,Level 2,Private,urban,Urban,Hospital,0,0,0,0,0,0,0
311,311,Talent Medical Services (Marsabit),2.33015,37.989666,1345.0,20.0,n_30461,n,30461,Level 2,Marsabit,,,Central,Level 2,Private,urban,Urban,Medical Clinic,0,0,0,0,0,0,0
312,312,Avenue Healthcare Limited -Junction Mall (Nairobi),-1.298405,36.762436,1830.5,10.475,n_3821,n,3821,Level 3,Nairobi,,,Kilimani,Level 3,Private,urban,Urban,Medical Center,0,0,0,0,0,0,0
313,313,Machakos Orthopedic Clinic (Machakos),-1.521801,37.264799,1607.700073,4.15,n_5934,n,5934,Level 2,Machakos,,,Machakos township,Level 2,Private,urban,Urban,Medical Clinic,0,0,0,0,0,0,0
314,314,Rona Medical Clinic (Bungoma),0.646478,34.51499,1532.2,7.383,n_31590,n,31590,Level 2,Bungoma,,,Tuti marakaru,Level 2,Private,rural,Rural,Medical Clinic,0,0,0,0,0,0,0
315,315,The Mekatilili Medical Clinic (Kilifi),-3.226432,40.029246,32.5,4.58,n_230840,n,230840,Level 2,Kilifi,,,Ganda,Level 2,Private,rural,Rural,Medical Clinic,0,0,0,0,0,0,0
316,316,Alif  Medical Centre,-1.273035,36.851261,1630.700073,23.070999,n_23928,n,23928,Level 2,Nairobi,Kamukunji,Kamukunji,Airbase,Level 2,Private,urban,Urban,Medical Center,0,0,0,0,0,0,0
317,317,Imbo Community Medical Centre (Bomabay),-0.595378,34.532838,1324.505615,8.913,n_4252,n,4252,Level 2,Homa Bay,,,East,Level 2,Private,rural,Rural,Medical Center,0,0,0,0,0,0,0
318,318,Rabuor Medical Clinic (Kisumu),-0.153968,34.829307,1140.599976,3.9,n_1270,n,1270,Level 2,Kisumu,,,Kobura,Level 2,Private,rural,Rural,Medical Center,0,0,0,0,0,0,0
319,319,Mama Gladys Chika Community Medical Centre (Siaya county),-0.221176,34.335679,1166.6,2.98,n_15561,n,15561,Level 2,Siaya,,,North uyoma ward,Level 2,Private,rural,Rural,Medical Clinic,0,0,0,0,0,0,0
320,320,Eldo Eye Health Services,0.105229,35.185562,1614.3,6.7,n_24690,n,24690,Level 3,Nandi,Nandi Hills,Nandi Hills,Nandi Hills,Level 3,Private,urban,Urban,Medical Clinic,0,0,0,0,0,0,0
321,321,Ladopharma Medical Centre-Masara LTD,-1.02575,34.330394,1278.0,7.52,n_24939,n,24939,Level 3,Migori,Suna West,Suna West,Wiga,Level 3,Private,urban,Urban,Medical Center,0,0,0,0,0,0,0
322,322,St Monica Medical Centre (2),-0.321657,36.146087,1876.0,20.027,n_38533877,n,38533877,Level 2,Nakuru,,,Barnabas,Level 2,Private,rural,Rural,Medical Center,0,0,0,0,0,0,0
323,323,Oregon Group Health Services (Meru),0.047954,37.655809,1567.700073,29.799999,n_39869,n,39869,Level 2,Meru,,,Municipality,Level 2,Private,urban,Urban,Medical Center,0,0,0,0,0,0,0
324,324,Blue Ocean Pharmaceuticals And Laboratory Services (Nairobi),-1.287465,36.741793,1801.599976,16.489,n_10887,n,10887,Level 2,Nairobi,,,Kawangware,Level 2,Private,urban,Urban,Stand-Alone service,0,0,0,0,0,0,0
325,325,Goldmed Chemists And Dental Clinic (Nairobi),-1.281945,36.821363,1657.0,14.51,n_11659,n,11659,Level 2,Nairobi,,,Starehe,Level 2,Private,urban,Urban,other,0,0,0,0,0,0,0
326,326,MSF Lavender House Clinic,-1.26604,36.852302,1625.900024,12.859,n_20050,n,20050,Level 2,Nairobi,Kamukunji,Kamukunji,Airbase,Level 2,Non-Governmental Organization,urban,Urban,Dispensary,0,0,0,0,0,0,0
327,327,Bloom Health Care (Machakos),-1.520045,37.269017,1620.0,15.234,n_26022,n,26022,Level 3,Machakos,Machakos Town,Machakos,Machakos Central,Level 3,Private,urban,Urban,Medical Center,0,0,0,0,0,0,0
328,328,Fortis Kidney Center Limited,-1.29849,36.808383,1733.400024,15.358,n_26114,n,26114,Level 3,Nairobi,Kibra,Kibra,Woodley/Kenyatta Golf Course,Level 3,Private,urban,Urban,Medical Center,0,0,0,0,0,0,0
329,329,Azurie Children's Medical Centre (Machakos),-1.282721,37.104023,1459.0,28.1,n_26592306,n,26592306,Level 3,Machakos,,,Matungulu west,Level 3,Private,urban,Urban,Medical Center,0,0,0,0,0,0,0
330,330,Brana Medical Care Clinic (Mombasa),-4.090568,39.661969,18.7,4.816,n_29779560,n,29779560,Level 2,Mombasa,,,Timbwani,Level 2,Private,urban,Urban,Medical Clinic,0,0,0,0,0,0,0
331,331,Jakes Nursing Home,0.014728,34.210876,1231.9,4.26,n_30077,n,30077,Level 3,Siaya,Alego Usonga,Alego Usonga,South East Alego,Level 3,Private,rural,Rural,Nursing Home,0,0,0,0,0,0,0
332,332,The Aga Khan University Hospital- Wajir Medical Centre,1.745459,40.054478,237.201172,26.934,n_30296,n,30296,Level 3,Wajir,Wajir East,Wajir East,Township,Level 3,Private,urban,Urban,Medical Center,0,0,0,0,0,0,0
333,333,Blue Ridge Medical Limited (Kisumu),-0.111123,34.747705,545.300049,18.091,n_126290,n,126290,Level 4,Kisumu,,,Milimani market,Level 4,Private,urban,Urban,Medical Center,0,0,0,0,0,0,0
334,334,Mzizima Medical (Mombasa County),-4.012216,39.684339,2.1,2.264,n_16319,n,16319,Level 2,Mombasa,,,Magogoni,Level 2,Private,urban,Urban,Medical Clinic,0,0,0,0,0,0,0
335,335,Tanapoint,-1.499117,40.034563,39.0,26.632,n_25789,n,25789,Level 2,Tana River,Galole,Galole,Chewani,Level 2,Private,urban,Urban,Medical Center,0,0,0,0,0,0,0
336,336,Cks Dialysis Centre Buruburu,-1.293735,36.875842,1617.5,12.036,n_26134,n,26134,Level 2,Nairobi,Makadara,Makadara,Harambee,Level 2,Private,urban,Urban,Stand-Alone service,0,0,0,0,0,0,0
337,337,"Crescent Medical Aid, Jamia Plaza (Nairobi)",-1.282903,36.820848,1656.300049,16.674,n_26298274,n,26298274,Level 2,Nairobi,,,Starehe,Level 2,Private,urban,Urban,other,0,0,0,0,0,0,0
338,338,Mikulinzi (Machakos),-1.281986,37.104845,1478.0,6.116,n_26715327,n,26715327,Level 3,Machakos,,,Joska,Level 3,Private,urban,Urban,Nursing Home,0,0,0,0,0,0,0
339,339,Kileleshwa Medical Plaza,-1.278742,36.790892,1723.700073,18.444,n_28560,n,28560,Level 3,Nairobi,Dagoretti North,Dagoretti North,Kileleshwa,Level 2,Private,urban,Urban,Hospital,0,0,0,0,0,0,0
340,340,Leahlevel Health Care (Kilifi),-3.923688,39.57492,152.2,5.325,n_28792430,n,28792430,Level 2,Kilifi,,,Kisurutini,Level 2,Private,rural,Rural,Health Center,0,0,0,0,0,0,0
341,341,Al Shafic Nursing Home Limited,1.744235,40.044917,243.43811,27.052999,n_30478,n,30478,Level 3,Wajir,Wajir East,Wajir East,Barwago,Level 3,Private,urban,Urban,Nursing Home,0,0,0,0,0,0,0
342,342,Uzima Medicare (Siaya),0.050653,34.437927,1429.9,11.025,n_31259,n,31259,Level 2,Siaya,,,West Gem,Level 2,Private,rural,Rural,Health Center,0,0,0,0,0,0,0
343,343,Ahf Parklands Clinic (Nairobi),-1.258307,36.813705,1684.800049,16.987,n_6530,n,6530,Level 2,Nairobi,,,Parklands Highridge,Level 2,Non-Governmental Organization,urban,Urban,Medical Clinic,0,0,0,0,0,0,0
344,344,Bilal Hospital (Nairobi),-1.2701,36.8469,1633.400024,15.408,n_10585,n,10585,Level 4,Nairobi,,,Kamkunji,Level 4,Private,urban,Urban,Hospital,0,0,0,0,0,0,0
345,345,Hardship Medical Clinic,-1.458014,36.977008,1504.800049,14.543,n_12055,n,12055,Level 2,Machakos,Mavoko,Athi River,Athi River,Level 2,Private,urban,Urban,Medical Clinic,0,0,0,0,0,0,0
346,346,Kirie Mission Clinic,-0.579696,37.780737,753.1,9.633,n_12334,n,12334,Level 2,Embu,Mbeere North,Mbeere North,Muminji,Level 2,Faith Based Organization,rural,Rural,Dispensary,0,0,0,0,0,0,0
347,347,Rhodes Chest Clinic,-1.292037,36.823948,1649.400024,18.334999,n_13163,n,13163,Level 2,Nairobi,Starehe,Starehe,Landimawe,Level 2,Government/Public entity,urban,Urban,Dispensary,0,0,0,0,0,0,0
348,348,Baraka Medical Clinic (Samburu East),0.639783,37.664855,825.800049,20.0,n_16670,n,16670,Level 2,Samburu,Samburu East,Samburu East,Waso,Level 2,Private,urban,Urban,Medical Clinic,0,0,0,0,0,0,0
349,349,Iftin Medical Clinic (Namanga),-2.548752,36.793158,1334.3,6.0,n_17235,n,17235,Level 2,Kajiado,,,Namanga Town,Level 2,Private,urban,Urban,Medical Clinic,0,0,0,0,0,0,0
350,350,Divine Mercy Parish Dispensary,-1.2673,36.884714,1595.5,28.18,n_18388,n,18388,Level 2,Nairobi,Embakasi West,Embakasi West,Kariobangi South,Level 2,Faith Based Organization,urban,Urban,Dispensary,0,0,0,0,0,0,0
351,351,siriba nursing home,1.016388,39.492428,185.399994,16.638,n_19029,n,19029,Level 3,Wajir,Wajir South,Wajir South,Habasswein,Level 3,Private,rural,Rural,Nursing Home,0,0,0,0,0,0,0
352,352,Hamza Medical Centre,-1.295939,36.87333,1617.800049,4.533,n_19472,n,19472,Level 2,Nairobi,Makadara,Makadara,Maringo/Hamza,Level 2,Non-Governmental Organization,urban,Urban,Medical Clinic,0,0,0,0,0,0,0
353,353,"M.p Shah Hospital, Off Ronald Ngala Street (Nairobi)",-1.28568,36.828696,1651.300049,10.1,n_21028,n,21028,Level 3,Nairobi,,,Starehe,Level 3,Private,urban,Urban,Dispensary,0,0,0,0,0,0,0
354,354,KALRO TRC Medical Clinic,0.496903,34.130652,1154.800049,20.1,n_22580,n,22580,Level 2,Busia,Teso South,Teso South,Ang'orom,Level 2,Government/Public entity,rural,Rural,Dispensary,0,0,0,0,0,0,0
355,355,Mamas Nursing Home,-0.825965,34.381976,1249.3,7.375,n_22695,n,22695,Level 3,Homa Bay,Ndhiwa,Ndhiwa,Kanyikela,Level 3,Private,rural,Rural,Health Center,0,0,0,0,0,0,0
356,356,Kilele Medical Specialist Centre,-1.29454,36.875852,1617.099976,3.233,n_22895,n,22895,Level 2,Nairobi,Makadara,Makadara,Maringo/Hamza,Level 2,Private,urban,Urban,Medical Clinic,0,0,0,0,0,0,0
357,357,Jamia Medical Services,2.32958,37.988531,1343.800049,20.0,n_23392,n,23392,Level 3,Marsabit,Saku,Saku,Marsabit Central,Level 3,Private,urban,Urban,Health Center,0,0,0,0,0,0,0
358,358,Capitalcare Medical Centre,0.421432,34.424313,1285.6,10.413,n_23582,n,23582,Level 2,Kakamega,Matungu,Matungu,Koyonzo,Level 2,Private,rural,Rural,Medical Center,0,0,0,0,0,0,0
359,359,Joeton Medical Clinic,-1.20748,36.785996,1741.9,8.75,n_26258,n,26258,Level 2,Kiambu,Kiambaa,Kiambaa,Ndenderu,Level 2,Private,urban,Urban,Medical Center,0,0,0,0,0,0,0
360,360,Javid Medical Clinic,0.461243,34.102924,1212.900024,8.54,n_27716,n,27716,Level 2,Busia,Matayos,Matayos,Burumba,Level 2,Private,urban,Urban,Medical Center,0,0,0,0,0,0,0
361,361,Mediheal Hospital Kakamega,0.28912,34.757579,1555.0,20.0,n_28938,n,28938,Level 2,Kakamega,Lurambi,Lurambi,Mahiakalo,Level 2,Private,urban,Urban,Hospital,0,0,0,0,0,0,0
362,362,Heleren Healthcare (Bungoma),0.714821,34.754958,1662.2,7.4,n_29210,n,29210,Level 2,Bungoma,,,Ndivisi,Level 2,Private,urban,Urban,Medical Center,0,0,0,0,0,0,0
363,363,Mwingi Doctors Plaza,-0.941306,38.063074,1045.0,5.84,n_29352,n,29352,Level 3,Kitui,Mwingi Central,Mwingi Central,Central,Level 3,Private,urban,Urban,Medical Clinic,0,0,0,0,0,0,0
364,364,Checkups Medical Centre,-1.295838,36.807609,1708.800049,16.881001,n_29660545,n,29660545,Level 3,Nairobi,Dagoretti North,Dagoretti North,Kilimani,Level 3,Private,urban,Urban,Medical Center,0,0,0,0,0,0,0
365,365,RIYADH MEDICAL CENTRE,2.210707,40.11884,391.4,6.4,n_29700,n,29700,Level 3,Wajir,Tarbaj,Tarbaj,Tarbaj,Level 3,Private,rural,Rural,Medical Center,0,0,0,0,0,0,0
366,366,Primeways Medical Centre (Nairobi),-1.309467,36.833505,1641.200073,6.181,n_2974,n,2974,Level 2,Nairobi,,,Nairobi South,Level 2,Private,urban,Urban,Health Center,0,0,0,0,0,0,0
367,367,ST. MONICA'S OBOKE MISSION HEALTH CENTRE,-0.798247,34.5122,1352.5,8.825,n_29853,n,29853,Level 3,Migori,Awendo,Awendo,North Sakwa,Level 3,Faith Based Organization,rural,Rural,Health Center,0,0,0,0,0,0,0
368,368,NIDAS MEDICARE,0.127785,34.865119,1718.4,3.733,n_30148,n,30148,Level 2,Vihiga,Hamisi,Hamisi,Shiru,Level 2,Private,rural,Rural,Medical Clinic,0,0,0,0,0,0,0
369,369,Kimwanga Medical Centre (Bungoma),0.597939,34.442443,1305.2,4.666,n_30719,n,30719,Level 2,Bungoma,,,Siboti,Level 2,Private,rural,Rural,Health Center,0,0,0,0,0,0,0
370,370,Fair Medical Clinic (Kilifi),-3.242133,40.090413,115.6,3.725,n_3958,n,3958,Level 2,Kilifi,,,Shella,Level 2,Private,urban,Urban,Medical Clinic,0,0,0,0,0,0,0
371,371,Kamburu (PCEA) Dispensary,-1.028532,36.740139,2130.3,6.06,n_10448,n,10448,Level 2,Kiambu,Lari,Lari,Kamburu,Level 2,Faith Based Organization,rural,Rural,Dispensary,0,0,0,0,0,0,0
372,372,Joy Medical Clinic (Jomvu),-4.005828,39.630978,25.6,28.1,n_11440,n,11440,Level 2,Mombasa,Jomvu,Jomvu,Mikindani,Level 2,Private,rural,Rural,Medical Clinic,0,0,0,0,0,0,0
373,373,Border Medical Care,-1.841539,36.789699,1716.900024,18.224001,n_14268,n,14268,Level 2,Kajiado,Kajiado Central,Kajiado Central,Dalalekutuk,Level 2,Private,urban,Urban,Medical Clinic,0,0,0,0,0,0,0
374,374,Hekima Dispensary,-0.304021,36.08455,1790.047852,9.648,n_14545,n,14545,Level 2,Nakuru,Nakuru Town East,Nakuru East,Kivumbuni,Level 2,Faith Based Organization,urban,Urban,Dispensary,0,0,0,0,0,0,0
375,375,Khulud Medical Centre (Nairobi),-1.258147,36.827173,1658.300049,15.282,n_146850,n,146850,Level 3,Nairobi,,,Parklands Highridge,Level 3,Private,urban,Urban,Medical Center,0,0,0,0,0,0,0
376,376,Rumuruti Catholic Dispensary,0.268516,36.541408,0.0,20.0,n_15501,n,15501,Level 2,Laikipia,Laikipia West,Laikipia West,Rumuruti Township,Level 2,Faith Based Organization,rural,Rural,Dispensary,0,0,0,0,0,0,0
377,377,Stratus Medical Healthcare And Imaging Solutions (Nairobi),-1.258818,36.830364,1636.1,5.75,n_15715,n,15715,Level 3,Nairobi,,,Karura,Level 3,Private,urban,Urban,Medical Center,0,0,0,0,0,0,0
378,378,Narumoru Catholic Dispensary,-0.18511,37.057189,2080.9,7.3,n_16816,n,16816,Level 2,Nyeri,Kieni,Kieni East,Naromoru/Kiamathaga,Level 2,Private,rural,Rural,Dispensary,0,0,0,0,0,0,0
379,379,Comfort The Chidren International (CTC) Naivasha,-0.972585,36.566432,1826.2,10.35,n_18748,n,18748,Level 3,Nakuru,Naivasha,Naivasha,Mai Mahiu,Level 3,Private,rural,Rural,Medical Center,0,0,0,0,0,0,0
380,380,Recovery Medical Clinic,-1.266888,36.896879,1590.599976,28.375,n_19616,n,19616,Level 2,Nairobi,Embakasi West,Embakasi West,Kariobangi South,Level 2,Private,urban,Urban,Medical Clinic,0,0,0,0,0,0,0
381,381,Vigetse Medical Clinic,0.021806,34.69321,1684.5,2.38,n_20692,n,20692,Level 2,Vihiga,Vihiga,Vihiga,South Maragoli,Level 2,Faith Based Organization,rural,Rural,Medical Clinic,0,0,0,0,0,0,0
382,382,The Aga Khan University Hospital Medical Center (Nyahururu),0.039832,36.363547,2359.899902,4.58,n_21137,n,21137,Level 4,Laikipia,Laikipia West,Laikipia West,Igwamiti,Level 4,Private,urban,Urban,Health Center,0,0,0,0,0,0,0
383,383,Liban Chemist and Optical Services,2.330829,37.990174,1345.800049,12.343,n_23351,n,23351,Level 2,Marsabit,Saku,Saku,Marsabit Central,Level 2,Private,urban,Urban,Medical Clinic,0,0,0,0,0,0,0
384,384,Bliss GVS Health Care (college House),-1.281117,36.817637,1664.599976,4.7,n_23361,n,23361,Level 2,Nairobi,Starehe,Starehe,Nairobi Central,Level 2,Private,urban,Urban,Medical Clinic,0,0,0,0,0,0,0
385,385,Nyamase Medical Centre,-1.121353,34.533417,1427.1,7.45,n_24866,n,24866,Level 2,Migori,Kuria West,Kuria West,Masaba,Level 2,Private,urban,Urban,Medical Center,0,0,0,0,0,0,0
386,386,P4 Light Jojamu  Medical Centre Lodwar,3.11995,35.599194,485.5,13.9,n_24965,n,24965,Level 3,Turkana,Turkana Central,Turkana Central,Lodwar Township,Level 3,Private,urban,Urban,Medical Center,0,0,0,0,0,0,0
387,387,Ikerege Life Care Hospital (Migori),-1.19853,34.556445,1510.8,6.175,n_25740215,n,25740215,Level 3,Migori,,,Kuria West,Level 3,Private,urban,Urban,Medical Center,0,0,0,0,0,0,0
388,388,Chiromo Mental Health Hospital,-1.288116,36.772068,1762.300049,13.316,n_26091,n,26091,Level 4,Nairobi,Dagoretti North,Dagoretti North,Kileleshwa,Level 4,Private,urban,Urban,Hospital,0,0,0,0,0,0,0
389,389,Medwell Medical Clinic (Machakos),-1.283015,37.101307,1456.200073,26.363001,n_26677,n,26677,Level 2,Machakos,,,Matungulu west,Level 2,Private,rural,Rural,Medical Clinic,0,0,0,0,0,0,0
390,390,Goodhope Health LTD,0.463996,34.102752,1216.200073,16.584999,n_27026,n,27026,Level 4,Busia,Matayos,Matayos,Burumba,Level 4,Private,urban,Urban,Hospital,0,0,0,0,0,0,0
391,391,Meridian Medical Centre Kakamega (Kakamega),0.282734,34.75496,1561.800049,17.777,n_27179361,n,27179361,Level 2,Kakamega,,,Lurhambi,Level 2,Private,urban,Urban,Medical Center,0,0,0,0,0,0,0
392,392,Restore Hospital,-1.345577,36.734844,1818.400024,20.0,n_28542,n,28542,Level 3,Nairobi,Langata,Langata,Karen,Level 3,Private,urban,Urban,Hospital,0,0,0,0,0,0,0
393,393,Miritini Treatment and Rehabilitation Center,-4.012897,39.599117,32.5,20.0,n_29098471,n,29098471,Level 3,Mombasa,Jomvu,Jomvu,Miritini,Level 3,Non-Governmental Organization,urban,Urban,Stand-Alone service,0,0,0,0,0,0,0
394,394,Manyulia Medical Clinic,0.16067,34.515197,1403.0,5.34,n_30541,n,30541,Level 2,Kakamega,Khwisero,Khwisero,Kisa West,Level 2,Private,rural,Rural,Medical Center,0,0,0,0,0,0,0
395,395,North Horr Health Centre GOK,3.336802,37.060943,384.5,6.62,n_30585,n,30585,Level 3,Marsabit,North Horr,North Horr,North Horr,Level 3,Government/Public entity,rural,Rural,Health Center,0,0,0,0,0,0,0
396,396,Leben Medical Service Shamberere,0.376105,34.844212,1616.1,5.9,n_8,n,8,Level 2,Nyeri,Mathira,Mathira West,Kirimukuyu,Level 2,Private,rural,Rural,Medical Center,0,0,0,0,0,0,0
397,397,Nairobi Outpatient Centre (Nairobi),-1.280905,36.818903,1658.900024,17.783001,n_9590,n,9590,Level 3,Nairobi,,,Nairobi outpatient,Level 3,Private,urban,Urban,Nursing Home,0,0,0,0,0,0,0
398,398,Walmer Eye Clinic,0.146316561,34.556156,1457.2,3.14,o18164,o18164,,Level 2,Kakamega,Khwisero,Khwisero,Kisa Central,Level 2,Private,rural,Rural,Medical Center,0,0,0,0,0,0,0
399,399,St Mathews and Sarah Dispensary,-0.184429,36.245491,2746.3,4.54,n_11059,n,11059,Level 2,Nyandarua,Ol Kalou,Olkalou,Mirangine,Level 2,Faith Based Organization,rural,Rural,Health Center,0,0,0,0,0,0,0
400,400,Katangi Mission Dispensary,-1.410032,37.699369,1297.7,7.1,n_12216,n,12216,Level 2,Machakos,Yatta,Yatta,Katangi,Level 2,Faith Based Organization,rural,Rural,Dispensary,0,0,0,0,0,0,0
401,401,Kionyo Medical Clinic,-0.118108,37.597212,1978.300049,10.785,n_12329,n,12329,Level 2,Meru,South Imenti,Imenti South,Abogeta West,Level 2,Private,rural,Rural,Medical Clinic,0,0,0,0,0,0,0
402,402,Kunati Health Centre,0.092661,37.918258,907.2,8.9,n_12390,n,12390,Level 3,Meru,Tigania East,Tigania Central,Thangatha,Level 3,Government/Public entity,rural,Rural,Health Center,0,0,0,0,0,0,0
403,403,South B Police Band Dispensary,-1.314992,36.834528,1635.200073,9.912,n_13144,n,13144,Level 2,Nairobi,Starehe,Starehe,Nairobi South,Level 2,Government/Public entity,urban,Urban,Dispensary,0,0,0,0,0,0,0
404,404,Kebaroti Dispensary,-1.319155,34.625033,1572.9,11.2,n_13659,n,13659,Level 2,Migori,Kuria East,Kuria East,Nyabasi West,Level 2,Government/Public entity,rural,Rural,Dispensary,0,0,0,0,0,0,0
405,405,Kengen Mvuke Clinic (Nakuru),-0.817394,36.319013,1923.599976,5.3,n_137190,n,137190,Level 3,Nakuru,,,Olkaria,Level 3,Private,urban,Urban,Medical Clinic,0,0,0,0,0,0,0
406,406,Atiar Dispensary,0.797454,35.790663,1718.6,7.975,n_14220,n,14220,Level 2,Baringo,Baringo North,Baringo North,Bartabwa,Level 2,Government/Public entity,rural,Rural,Dispensary,0,0,0,0,0,0,0
407,407,Roret Medical Clinic,-0.504304,35.10024,1769.1,20.048,n_15499,n,15499,Level 2,Kericho,Bureti,Bureti,Kisiara,Level 2,Private,rural,Rural,Medical Clinic,0,0,0,0,0,0,0
408,408,Gategi Health Centre,-0.749617,37.423912,1115.0,3.592,n_16463,n,16463,Level 3,Embu,Mbeere South,Mwea,Mwea,Level 3,Government/Public entity,rural,Rural,Health Center,0,0,0,0,0,0,0
409,409,Dunga Nursing Home,-0.131797,34.744499,1126.200073,3.983,n_16661,n,16661,Level 4,Kisumu,Kisumu Central,Kisumu Central,Nyalenda B,Level 3,Private,urban,Urban,Nursing Home,0,0,0,0,0,0,0
410,410,Kambare Dispensary,-0.032389,34.466684,1334.430786,17.301001,n_17527,n,17527,Level 2,Siaya,Gem,Gem,South Gem,Level 2,Government/Public entity,rural,Rural,Dispensary,0,0,0,0,0,0,0
411,411,Siala Kaduol,0.009372,34.461682,1246.758667,17.836,n_18426,n,18426,Level 2,Siaya,Gem,Gem,South Gem,Level 2,Government/Public entity,rural,Rural,Dispensary,0,0,0,0,0,0,0
412,412,Ladopharma Medical Centre,-1.06999,34.469852,1334.0,8.36,n_18898,n,18898,Level 2,Migori,Suna West,Suna West,Ragana-oruba,Level 2,Private,urban,Urban,Medical Center,0,0,0,0,0,0,0
413,413,Al Iklas Nursing Home,-0.437226,39.65468,134.313729,8.93,n_18997,n,18997,Level 3,Garissa,Garissa Township,Garissa,Galbet,Level 3,Private,urban,Urban,Nursing Home,0,0,0,0,0,0,0
414,414,Warsan Health Services,-0.434163,39.66262,145.5,7.25,n_19047,n,19047,Level 2,Garissa,Garissa Township,Garissa,Waberi,Level 3,Private,urban,Urban,Hospital,0,0,0,0,0,0,0
415,415,Equity Afia Embakasi Village (Nairobi),-1.310064,36.912833,1607.200073,25.857,n_21001,n,21001,Level 2,Nairobi,,,Embakasi,Level 2,Private,urban,Urban,Medical Center,0,0,0,0,0,0,0
416,416,Mothersolbrit Nursing Home,-1.306506,34.615779,1773.4,5.0,n_21467,n,21467,Level 3,Migori,Kuria East,Kuria East,Nyabasi West,Level 3,Private,rural,Rural,Nursing Home,0,0,0,0,0,0,0
417,417,Chepsoo Medical Centre,0.20326,35.098193,1986.700073,26.4,n_22789,n,22789,Level 2,Nandi,Emgwen,Emgwen,Kapsabet,Level 2,Private,urban,Urban,Medical Center,0,0,0,0,0,0,0
418,418,Nelion Doctors Plaza,-0.428955,36.961708,1786.8,2.928,n_23289,n,23289,Level 2,Nyeri,Nyeri Town,Nyeri Central,Rware,Level 2,Private,urban,Urban,Medical Center,0,0,0,0,0,0,0
419,419,Vertical care life,0.201637,35.099107,1991.800049,20.0,n_23528,n,23528,Level 2,Nandi,Emgwen,Emgwen,Kapsabet,Level 2,Private,urban,Urban,Medical Center,0,0,0,0,0,0,0
420,420,LADNAN HOSPITAL,2.808401,40.930875,369.4,3.9,n_23816,n,23816,Level 4,Mandera,Mandera South,Mandera South,Elwak South,Level 4,Private,urban,Urban,Hospital,0,0,0,0,0,0,0
421,421,KRCS Lamu Rehabilitation Centre (Hindi),-2.194292,40.817258,-15.4,23.6,n_24530,n,24530,Level 2,Lamu,Lamu West,Lamu Central,Hindi,Level 2,Government/Public entity,rural,Rural,Health Center,0,0,0,0,0,0,0
422,422,Riverdale Medical Centre,-1.277288,36.767766,1759.300049,6.74,n_24791,n,24791,Level 2,Nairobi,Dagoretti North,Dagoretti North,Kileleshwa,Level 2,Private,urban,Urban,Medical Clinic,0,0,0,0,0,0,0
423,423,Kilimani Childrens Clinic,-1.283752,36.789709,1735.300049,20.0,n_24888,n,24888,Level 2,Nairobi,Dagoretti North,Dagoretti North,Kilimani,Level 2,Private,urban,Urban,Medical Clinic,0,0,0,0,0,0,0
424,424,Bulsho Healthcare Limited (Wajir),1.752511,40.047175,244.651306,7.504,n_26188255,n,26188255,Level 3,Wajir,,,barwago,Level 3,Private,urban,Urban,Nursing Home,0,0,0,0,0,0,0
425,425,Philo Medical Clinic(Naivasha),-0.726411,36.430934,1896.9,5.983,n_26305,n,26305,Level 2,Nakuru,Naivasha,Naivasha,Lake View,Level 2,Private,urban,Urban,Medical Clinic,0,0,0,0,0,0,0
426,426,Tifna Medical Clinic,-0.277815,36.169826,1924.800049,27.4,n_26882,n,26882,Level 2,Nakuru,Bahati,Nakuru North,Lanet/Umoja,Level 2,Private,urban,Urban,Medical Center,0,0,0,0,0,0,0
427,427,Highcure Medical Centre,-1.159469,36.939586,1524.599976,15.841,n_27399,n,27399,Level 2,Kiambu,Ruiru,Ruiru,Gitothua,Level 2,Private,urban,Urban,Medical Center,0,0,0,0,0,0,0
428,428,Equity Afia marsabit,2.328465,37.98775,1347.599976,24.9,n_28685,n,28685,Level 3,Marsabit,Saku,Saku,Marsabit Central,Level 3,Private,urban,Urban,Health Center,0,0,0,0,0,0,0
429,429,Salama Cancer Centre Ltd,-0.086117,34.768558,1177.700073,12.35,n_28868434,n,28868434,Level 3,Kisumu,Kisumu Central,Kisumu Central,Railways,Level 3,Private,urban,Urban,other,0,0,0,0,0,0,0
430,430,Allscope Health Centre (Nairobi),-1.285686,36.948064,1585.700073,14.921,n_28983448,n,28983448,Level 3,Nairobi,,,Mihango,Level 3,Private,urban,Urban,Health Center,0,0,0,0,0,0,0
431,431,AGA KHAN MWATATE,-3.504982,38.377389,833.5,5.142,n_29490,n,29490,Level 3,Taita Taveta,Mwatate,Mwatate,Mwatate,Level 3,Private,rural,Rural,Medical Clinic,0,0,0,0,0,0,0
432,432,Lenmek healthcare Annex Magenche,-0.949992,34.723687,1832.3,3.9,n_29898,n,29898,Level 3,Kisii,Bomachoge Borabu,Bomachoge Borabu,Magenche,Level 3,Private,rural,Rural,Health Center,0,0,0,0,0,0,0
433,433,NGAMIA HEALTH SERVICES,-0.783465,39.666612,0.0,26.4,n_30514,n,30514,Level 3,Tana River,Bura,Bura,Chewele,Level 3,Private,rural,Rural,Nursing Home,0,0,0,0,0,0,0
434,434,Tamil Health Care Limited (Nakuru),-0.715185,36.432033,1889.200073,20.0,n_38353873,n,38353873,Level 2,Nakuru,,,Viwandani,Level 2,Private,urban,Urban,Medical Clinic,0,0,0,0,0,0,0
435,435,United States International University Africa Medical Centre (Nairobi),-1.215879,36.877686,1614.700073,20.0,n_4470,n,4470,Level 3,Nairobi,,,Ruaraka,Level 3,Private,urban,Urban,Medical Center,0,0,0,0,0,0,0
436,436,Garlands Medical Centre,-1.396683663,36.749271,1733.099976,20.0,o28533,o28533,,Level 3,Kajiado,Kajiado North,Kajiado North,Ongata Rongai,Level 3,Private,urban,Urban,Medical Center,0,0,0,0,0,0,0
437,437,Kamae Forest Dispensary,-0.850626,36.605094,2747.1,9.66,n_10440,n,10440,Level 2,Kiambu,Lari,Lari,Kinale,Level 2,Government/Public entity,rural,Rural,Dispensary,0,0,0,0,0,0,0
438,438,Dzitsoni Medical Clinic,-3.641608,39.848898,12.9,8.75,n_11360,n,11360,Level 2,Kilifi,Kilifi North,Kilifi North,Mnarani,Level 2,Private,urban,Urban,Medical Clinic,0,0,0,0,0,0,0
439,439,Mgamboni Dispensary,-3.845448,39.663186,227.5,4.9,n_11601,n,11601,Level 2,Kilifi,Kaloleni,Kaloleni,Kaloleni,Level 2,Government/Public entity,rural,Rural,Dispensary,0,0,0,0,0,0,0
440,440,Tumaini Medical Clinic (Changamwe),-4.025314,39.612016,29.9,23.150999,n_11864,n,11864,Level 2,Mombasa,Changamwe,Changamwe,Airport,Level 2,Private,urban,Urban,Medical Clinic,0,0,0,0,0,0,0
441,441,Matuu Mission Health Centre,-1.148841,37.548992,1260.400024,21.863001,n_12489,n,12489,Level 3,Machakos,Yatta,Yatta,Matuu,Level 3,Faith Based Organization,rural,Rural,Medical Center,0,0,0,0,0,0,0
442,442,St Lukes Cottage Hospital,-0.061527,37.858061,872.6,5.3,n_12759,n,12759,Level 4,Meru,Central Imenti,Imenti Central,Kiagu,Level 3,Faith Based Organization,rural,Rural,Health Center,0,0,0,0,0,0,0
443,443,Keringet Health Centre,1.21132,35.049,1986.9,7.666,n_14837,n,14837,Level 3,West Pokot,Kapenguria,West Pokot,Mnagei,Level 3,Government/Public entity,rural,Rural,Health Center,0,0,0,0,0,0,0
444,444,St Elizabeth Lorugum Health Centre,2.892305,35.265016,613.6,2.92,n_15089,n,15089,Level 3,Turkana,Loima,Loima,Turkwel,Level 3,Faith Based Organization,rural,Rural,Health Center,0,0,0,0,0,0,0
445,445,Mau Narok Health Centre,-0.600187,36.006699,2697.2,6.7,n_15156,n,15156,Level 3,Nakuru,Njoro,Njoro,Mau Narok,Level 3,Government/Public entity,urban,Urban,Health Center,0,0,0,0,0,0,0
446,446,Sinoko Dispensary (Bungoma East),0.699276,34.791393,1652.1,1.937,n_16126,n,16126,Level 2,Bungoma,Webuye East,Webuye East,Ndivisi,Level 2,Government/Public entity,rural,Rural,Dispensary,0,0,0,0,0,0,0
447,447,Turi (PCEA) Dispensary,-0.285609,35.756191,2477.6,20.4,n_168200,n,168200,Level 2,Nakuru,Molo,Molo,Turi,Level 2,Faith Based Organization,urban,Urban,Dispensary,0,0,0,0,0,0,0
448,448,Akemo Medical Clinic,-4.087409,39.659529,-6.6,4.811,n_17770,n,17770,Level 2,Mombasa,Likoni,Likoni,Timbwani,Level 2,Private,urban,Urban,Medical Clinic,0,0,0,0,0,0,0
449,449,Mainland Medical Centre (Changamwe),-4.018381,39.624255,25.299999,15.043,n_17862,n,17862,Level 3,Mombasa,Changamwe,Changamwe,Kipevu,Level 3,Private,urban,Urban,Medical Center,0,0,0,0,0,0,0
450,450,Appex Medical Clinic,0.106236,35.184657,2036.800049,6.266,n_18934,n,18934,Level 2,Nandi,Nandi Hills,Nandi Hills,Nandi Hills,Level 2,Private,urban,Urban,Medical Clinic,0,0,0,0,0,0,0
451,451,Kenya Airways Pride Clinic,-1.313444,36.917859,1606.700073,12.702,n_22018,n,22018,Level 2,Nairobi,Embakasi East,Embakasi East,Embakasi,Level 2,Private,urban,Urban,Medical Clinic,0,0,0,0,0,0,0
452,452,Zanik Medical Centre (Busia),0.459193,34.23685,1169.2,7.55,n_23194,n,23194,Level 3,Busia,,,Township,Level 3,Private,urban,Urban,Medical Center,0,0,0,0,0,0,0
453,453,Busia Healthsidelab Medical Clinic,0.4614,34.108821,1210.400024,21.207001,n_23382,n,23382,Level 2,Busia,Matayos,Matayos,Burumba,Level 2,Private,urban,Urban,Health Center,0,0,0,0,0,0,0
454,454,Equra Health Kenya,-1.267397,36.749465,1786.0,11.6,n_23423,n,23423,Level 2,Nairobi,,,Kangemi,Level 2,Government/Public entity,urban,Urban,Stand-Alone service,0,0,0,0,0,0,0
455,455,Brain Spine and Rehabilitation,-1.265571,36.817099,1693.597168,28.792,n_23488,n,23488,Level 4,Nairobi,Westlands,Westlands,Parklands/Highridge,Level 4,Private,urban,Urban,Hospital,0,0,0,0,0,0,0
456,456,Bliss GVS  Health Care Githurai,-1.199839,36.921008,1515.5,20.4,n_2408133,n,2408133,Level 2,Kiambu,Ruiru,Ruiru,Mwiki,Level 2,Private,urban,Urban,Medical Center,0,0,0,0,0,0,0
457,457,LIGHTHOUSE HOSPITAL AND REHABILITATION CENTRE,0.501878,35.288221,2086.699951,25.478001,n_24823,n,24823,Level 4,Uasin Gishu,Kesses,Kesses,Racecourse,Level 4,Private,urban,Urban,Hospital,0,0,0,0,0,0,0
458,458,Ladopharma Nursing Home Ltd (Rongo),-0.758305,34.59839,1441.6,6.68,n_24938,n,24938,Level 3,Migori,Rongo,Rongo,Central Kamagambo,Level 3,Private,urban,Urban,Nursing Home,0,0,0,0,0,0,0
459,459,Cascade of Hope Health Care,-1.249249,36.952449,1506.0,13.758,n_25152,n,25152,Level 2,Nairobi,Kasarani,Kasarani,Ruai,Level 2,Faith Based Organization,rural,Rural,Health Center,0,0,0,0,0,0,0
460,460,The Nairobi Hospital Southfields Out Patient,-1.328868,36.890608,1633.099976,20.0,n_25162,n,25162,Level 3,Nairobi,Embakasi South,Embakasi South,Imara Daima,Level 3,Private,urban,Urban,Medical Center,0,0,0,0,0,0,0
461,461,Wajir West Roadside Medical Centre & Laboratory,1.753791,40.036259,259.272583,17.504,n_26010,n,26010,Level 3,Wajir,Wajir East,Wajir East,Barwago,Level 3,Private,urban,Urban,Nursing Home,0,0,0,0,0,0,0
462,462,Nanasi  clinic,-1.148159,37.546937,1254.099976,20.4,n_26185252,n,26185252,Level 2,Machakos,Yatta,Yatta,Matuu,Level 2,Private,rural,Rural,Medical Center,0,0,0,0,0,0,0
463,463,Bondo Medical Centre Barkowino,-0.098064,34.270616,1251.300049,22.5,n_26351280,n,26351280,Level 2,Siaya,Bondo,Bondo,North Sakwa,Level 2,Private,urban,Urban,Medical Center,0,0,0,0,0,0,0
464,464,Nguni Medicare,-0.803164,38.309222,623.8,6.1,n_27180,n,27180,Level 2,Kitui,Mwingi Central,Mwingi Central,Nguni,Level 2,Private,rural,Rural,Medical Clinic,0,0,0,0,0,0,0
465,465,St.Joshua Medical Clinic,-0.113958,34.764075,1177.0,6.56,n_27260,n,27260,Level 2,Kisumu,Kisumu East,Kisumu East,Kolwa Central,Level 2,Private,urban,Urban,Medical Clinic,0,0,0,0,0,0,0
466,466,Immam Medical Centre,-3.868869,39.477872,172.399994,4.4,n_28768,n,28768,Level 2,Kilifi,Kaloleni,Kaloleni,Mariakani,Level 2,Private,urban,Urban,Medical Center,0,0,0,0,0,0,0
467,467,Shifa Taqwa Medical Centre,-0.124071,34.794175,1150.3,7.616,n_28816,n,28816,Level 3,Kisumu,Kisumu East,Kisumu East,Kolwa Central,Level 3,Private,rural,Rural,Medical Center,0,0,0,0,0,0,0
468,468,Palm View Medical Center,-4.040583,39.669203,-27.1,20.0,n_28969,n,28969,Level 3,Mombasa,Mvita,Mvita,Tudor,Level 3,Private,urban,Urban,Medical Center,0,0,0,0,0,0,0
469,469,Lifespan Medical Centre- Ruiru,-1.153797,36.923705,1530.400024,3.9,n_29264,n,29264,Level 3,Kiambu,Ruiru,Ruiru,Gitothua,Level 3,Private,urban,Urban,Medical Center,0,0,0,0,0,0,0
470,470,The Nairobi Family And Maternity Hospital Kilgoris Gynocare,-1.01022,34.879822,1754.700073,11.3,n_29316,n,29316,Level 3,Narok,Kilgoris,Transmara West,Shankoe,Level 3,Private,rural,Rural,Hospital,0,0,0,0,0,0,0
471,471,Chwele Fountain Hospital,0.738173,34.574042,1626.8,2.5,n_29541,n,29541,Level 3,Bungoma,Kabuchai,Kabuchai,Kabuchai/Chwele,Level 3,Private,rural,Rural,Medical Center,0,0,0,0,0,0,0
472,472,Kemri Medical Centre,-1.31312,36.803821,1693.099976,13.609,n_29767,n,29767,Level 3,Nairobi,Kibra,Kibra,Woodley/Kenyatta Golf Course,Level 3,Government/Public entity,urban,Urban,Medical Center,0,0,0,0,0,0,0
473,473,Artic Hospital Limited,-3.962016,39.713953,-1.3,20.0,n_30617,n,30617,Level 3,Mombasa,Kisauni,Kisauni,Shanzu,Level 3,Private,urban,Urban,Medical Center,0,0,0,0,0,0,0
474,474,Agah Khan Medical Centre (Busia),0.463373,34.104046,1216.599976,20.4,n_31864,n,31864,Level 3,Busia,,,Burumba,Level 3,Private,urban,Urban,Health Center,0,0,0,0,0,0,0
475,475,Kianjai Medical Centre And Laboratory Services (Meru),0.16204,37.746336,1376.900024,6.675,n_31997,n,31997,Level 2,Meru,,,Kianjai,Level 2,Private,rural,Rural,Medical Clinic,0,0,0,0,0,0,0
476,476,Hasnam Medical Centre (Mombasa),-4.04772,39.660745,-2.1,11.851,n_41204,n,41204,Level 3,Mombasa,,,Majengo,Level 3,Private,urban,Urban,Medical Center,0,0,0,0,0,0,0
477,477,Equity Afia Medical Centre Embu (Embu),-0.539394,37.455796,1325.599976,9.9,n_6417,n,6417,Level 2,Embu,,,Kirimari,Level 2,Private,urban,Urban,Medical Center,0,0,0,0,0,0,0
478,478,Medicross Medical Clinic (Meru),0.051740321,37.655311,1571.300049,28.1,o23143,o23143,,Level 2,Meru,North Imenti,Imenti North,Municipality,Level 2,Private,urban,Urban,Medical Center,0,0,0,0,0,0,0
479,479,Kerugoya Medical Centre,-0.502995,37.27881,1520.900024,4.233,n_10522,n,10522,Level 2,Kirinyaga,Kirinyaga Central,Kirinyaga Central,Kerugoya,Level 2,Private,urban,Urban,Medical Clinic,0,0,0,0,0,0,0
480,480,Ngarariga Health Centre,-1.082597,36.623261,2351.5,4.333,n_10859,n,10859,Level 3,Kiambu,Limuru,Limuru,Bibirioni,Level 3,Faith Based Organization,rural,Rural,Health Center,0,0,0,0,0,0,0
481,481,Ngorongo Health Centre,-0.938445,36.906735,1798.0,8.9,n_10872,n,10872,Level 3,Kiambu,Gatundu North,Gatundu North,Chania,Level 3,Government/Public entity,rural,Rural,Health Center,0,0,0,0,0,0,0
482,482,Mary Immaculate Cottage Hospital (Mombasa),-4.04594,39.6638,-6.6,17.596001,n_11573,n,11573,Level 3,Mombasa,Mvita,Mvita,Tononoka,Level 3,Faith Based Organization,urban,Urban,Hospital,0,0,0,0,0,0,0
483,483,Emali Nursing Home,-2.078976,37.472904,1103.1,6.22,n_12002,n,12002,Level 3,Makueni,Kibwezi West,Kibwezi West,Emali/Mulala,Level 3,Private,urban,Urban,Nursing Home,0,0,0,0,0,0,0
484,484,Kangeta Heaith Centre,0.276295,37.889162,1826.800049,19.125,n_12174,n,12174,Level 4,Meru,Igembe Central,Igembe Central,Kangeta,Level 4,Government/Public entity,urban,Urban,Hospital,0,0,0,0,0,0,0
485,485,Mikinduri Sub-District Hospial,0.123686,37.837396,1297.599976,9.85,n_12525,n,12525,Level 4,Meru,Tigania East,Tigania Central,Mikinduri,Level 4,Government/Public entity,rural,Rural,Medical Center,0,0,0,0,0,0,0
486,486,Mitunguu Health Centre,-0.105769,37.781383,1034.9,7.575,n_12534,n,12534,Level 3,Meru,South Imenti,Imenti South,Mitunguu,Level 3,Government/Public entity,rural,Rural,Health Center,0,0,0,0,0,0,0
487,487,Marie Stopes Nursing Home (Eastleigh),-1.269848,36.848029,1629.400024,16.0,n_13068,n,13068,Level 3,Nairobi,Kamukunji,Kamukunji,Eastleigh North,Level 3,Private,urban,Urban,Nursing Home,0,0,0,0,0,0,0
488,488,Iranda Sub-County Referral Hospital,-0.626956,34.782051,1627.025258,25.142,n_13620,n,13620,Level 4,Kisii,Kitutu Chache South,Kitutu Chache South,Nyakoe,Level 4,Government/Public entity,rural,Rural,Hospital,0,0,0,0,0,0,0
489,489,Maseno University Health centre,-0.001543,34.610985,1560.2,4.75,n_13782,n,13782,Level 3,Kisumu,Kisumu West,Kisumu West,North West Kisumu,Level 3,Government/Public entity,urban,Urban,Health Center,0,0,0,0,0,0,0
490,490,Pala Level 4 Hospital,-0.804759,34.444772,1357.7,4.66,n_14011,n,14011,Level 4,Homa Bay,Ndhiwa,Ndhiwa,Kabuoch South/Pala,Level 4,Government/Public entity,rural,Rural,Hospital,0,0,0,0,0,0,0
491,491,Simenya Health Centre,0.156453,34.36246,1333.164063,17.033001,n_14091,n,14091,Level 3,Siaya,Ugunja,Ugunja,Sidindi,Level 3,Government/Public entity,rural,Rural,Health Center,0,0,0,0,0,0,0
492,492,Verna Health Centre,-0.79464,34.58241,1527.6,9.5,n_141660,n,141660,Level 3,Migori,Rongo,Rongo,East Kamagambo,Level 3,Faith Based Organization,rural,Rural,Health Center,0,0,0,0,0,0,0
493,493,Cheramei Dispensary,0.603574,35.144319,1962.7,5.44,n_14377,n,14377,Level 2,Uasin Gishu,Turbo,Turbo,Kamagut,Level 2,Government/Public entity,rural,Rural,Dispensary,0,0,0,0,0,0,0
494,494,Gilgil ASTU Dispensary,-0.47247,36.334256,2033.300049,5.1,n_14508,n,14508,Level 2,Nakuru,Gilgil,Gilgil,Murindati,Level 2,Government/Public entity,urban,Urban,Dispensary,0,0,0,0,0,0,0
495,495,Eldama Ravine (AIC) Health Centre,0.040792,35.723682,2253.2,6.625,n_14964,n,14964,Level 3,Baringo,Eldama Ravine,Koibatek,Ravine,Level 3,Faith Based Organization,urban,Urban,Health Center,0,0,0,0,0,0,0
496,496,St Antony's Abossi Health Centre,-0.914983,35.059091,1925.9,10.911,n_15627,n,15627,Level 3,Narok,Emurua Dikirr,Transmara East,Ololmasani,Level 3,Faith Based Organization,rural,Rural,Health Center,0,0,0,0,0,0,0
497,497,Calvary Hope Medical Centre,0.614536,34.761411,0.0,20.0,n_16142,n,16142,Level 2,Bungoma,Webute West,Webuye West,Matulo,Level 3,Private,urban,Urban,Health Center,0,0,0,0,0,0,0
498,498,Shree Cutchhi Leva Samaj Medical Clinic,-1.310093,36.822407,1643.200073,6.672,n_17389,n,17389,Level 2,Nairobi,Langata,Langata,Nairobi West,Level 2,Private,urban,Urban,Medical Clinic,0,0,0,0,0,0,0
499,499,Blueturtle Dispensary,-1.706897,38.06421,886.3,5.04,n_17609,n,17609,Level 2,Kitui,Kitui South,Kitui South,Ikanga/Kyatune,Level 2,Private,urban,Urban,Medical Clinic,0,0,0,0,0,0,0
500,500,Laisamis Sub county Referral Hospital (MARSABIT SOUTH),1.616343,37.807287,575.7,3.1,n_18856,n,18856,Level 4,Marsabit,Laisamis,Laisamis,Laisamis,Level 4,Government/Public entity,urban,Urban,Hospital,0,1,0,1,1,0,0
501,501,Mogotio Medical Clinic (Berur),-0.023112,35.962674,1568.700073,8.2,n_18959,n,18959,Level 2,Baringo,Mogotio,Mogotio,Mogotio,Level 2,Private,urban,Urban,Medical Clinic,0,0,0,0,0,0,0
502,502,Elevated Medical Services (Murang'a),-0.886516,37.220079,1430.7,4.94,n_1898,n,1898,Level 2,Murang'a,,,Makuyu,Level 2,Private,rural,Rural,Medical Center,0,0,0,0,0,0,0
503,503,Holy family Catholic Hospital (Githunguri),-1.058645,36.773978,1968.249268,24.747,n_19963,n,19963,Level 4,Kiambu,Githunguri,Githunguri,Githunguri,Level 4,Faith Based Organization,rural,Rural,Hospital,0,0,0,0,0,0,0
504,504,Mwangaza ulio Na Tumaini clinic,-1.251069,36.891904,1582.0,22.667,n_20091,n,20091,Level 2,Nairobi,Ruaraka,Ruaraka,Korogocho,Level 2,Faith Based Organization,urban,Urban,Health Center,0,0,0,0,0,0,0
505,505,Maikona Health Centre,2.934417,37.638077,355.3,5.52,n_20522,n,20522,Level 3,Marsabit,North Horr,North Horr,Maikona,Level 3,Government/Public entity,rural,Rural,Health Center,0,0,0,0,0,0,0
506,506,Kiliman Assessment Center,-0.104392,34.759866,1160.099976,17.879999,n_20937,n,20937,Level 2,Kisumu,Kisumu Central,Kisumu Central,Market Milimani,Level 3,Private,urban,Urban,Hospital,0,0,0,0,0,0,0
507,507,Lupe Medical Centre,0.290125,34.768092,1526.5,8.145,n_21433,n,21433,Level 2,Kakamega,Lurambi,Lurambi,Shirere,Level 2,Private,urban,Urban,Medical Center,0,0,0,0,0,0,0
508,508,Scan Lab Kitengela Limited,-1.473054,36.96792,1559.800049,9.648,n_219410,n,219410,Level 2,Kajiado,Kajiado East,Kajiado East,Kaputiei North,Level 2,Private,urban,Urban,Medical Center,0,0,0,0,0,0,0
509,509,Alwalidayn Dispensary,-4.360757,39.530847,-3.6,12.994,n_22059,n,22059,Level 2,Kwale,Msambweni,Msambweni,Kinondo,Level 2,Faith Based Organization,rural,Rural,Dispensary,0,0,0,0,0,0,0
510,510,Bethesda Nursing Home(Naivasha),-0.776635,36.434558,1920.0,4.216,n_22917,n,22917,Level 3,Nakuru,Naivasha,Naivasha,Hellsgate,Level 3,Private,urban,Urban,Nursing Home,0,0,0,0,0,0,0
511,511,ST.TERESA ASANTE NAGOYA DISPENSARY,-0.607853,34.648727,1523.0,2.633,n_22922,n,22922,Level 2,Homa Bay,Rangwe,Rangwe,East Gem,Level 2,Faith Based Organization,rural,Rural,Health Center,0,0,0,0,0,0,0
512,512,Thika Annanas Medicross Clinic,-1.055553,37.114235,1468.099976,15.44,n_23232,n,23232,Level 2,Kiambu,Thika Town,Thika Town,Kamenu,Level 2,Private,urban,Urban,Medical Center,0,0,0,0,0,0,0
513,513,Avenue HealthCare (Changamwe Clinic),-4.029107,39.629838,25.699999,21.6,n_23576,n,23576,Level 2,Mombasa,Changamwe,Changamwe,Kipevu,Level 2,Private,urban,Urban,Hospital,0,0,0,0,0,0,0
514,514,Bliss GVS Healthcare Limited (Kitui),-1.366483,38.007987,1128.599976,28.1,n_23584,n,23584,Level 2,Kitui,Kitui Central,Kitui Central,Township,Level 2,Private,urban,Urban,Medical Center,0,0,0,0,0,0,0
515,515,Anfac Nursing Home,-0.471677,39.65226,120.200005,23.6,n_23682,n,23682,Level 2,Garissa,Garissa Township,Garissa,Iftin,Level 3,Private,urban,Urban,Nursing Home,0,0,0,0,0,0,0
